donor_id,name,surname,location,age,sex,blood_type,probability_score,lat,lon,phone,email
D_00001,Danielle,Parab,Mumbai,38,F,B+,0.166,19.11574,72.86664,4332181960,williamjohnson@gmail.com
D_00002,Jennifer,Patel,Goa,26,M,B+,0.034,15.32162,74.20484,3794026542,jamesmichael@yahoo.com
D_00003,Cassandra,Parab,Bengaluru,18,M,O+,0.052,12.99096,77.44154,7816184959,kendragalloway@gmail.com
D_00004,Michelle,Singh,Nagpur,24,M,AB+,0.0,21.11156,79.02881,4752553419,stevennelson@hotmail.com
D_00005,Hailey,Bhagat,Mumbai,26,M,O+,0.116,19.0814,72.76372,5030564139,pwilkerson@yahoo.com
D_00006,Douglas,Patel,Bengaluru,34,M,O+,0.0,12.92358,77.6704,3884969653,camposmichelle@gmail.com
D_00007,Courtney,Sharma,Goa,40,F,O+,0.0,15.29822,74.03938,9166978480,daniel62@yahoo.com
D_00008,Aaron,Patel,Nagpur,34,F,Bombay(Oh),0.944,21.36807,79.18369,8281489325,georgetracy@gmail.com
D_00009,Sarah,Bhagat,Goa,18,F,AB-,0.074,15.29005,74.09991,3039117182,josephbrennan@yahoo.com
D_00010,Tamara,Fernandes,Pune,20,M,AB+,0.087,18.41267,73.78625,4657871331,briannasmith@hotmail.com
D_00011,Crystal,Patel,Pune,42,M,AB+,0.057,18.46625,73.90563,1051834738,esanchez@yahoo.com
D_00012,James,Parab,Nagpur,18,M,A+,0.135,21.12923,79.03832,6566701065,amandataylor@gmail.com
D_00013,Joshua,Fernandes,Pune,40,F,AB-,0.128,18.43189,73.761,1781080132,michellebarrera@gmail.com
D_00014,Nicholas,Bhagat,Nagpur,41,M,O+,0.1,21.06277,79.08214,4746872343,adkinsbrian@hotmail.com
D_00015,Thomas,Khan,Mumbai,18,F,A+,0.101,19.07313,73.00287,0812191361,harveyrobert@hotmail.com
D_00016,Annette,Singh,Pune,41,M,B+,0.011,18.4069,73.9401,4353462475,jonesjason@yahoo.com
D_00017,David,Parab,Mumbai,23,M,Bombay(Oh),0.975,19.19423,72.83624,1354278498,mcmillandennis@gmail.com
D_00018,Pamela,Naik,Mumbai,34,M,B+,0.106,19.11612,72.97035,4493534874,bradley52@hotmail.com
D_00019,Tina,Parab,Nagpur,24,F,B+,0.064,21.15357,79.16569,7868011280,russellwilliams@yahoo.com
D_00020,Rachel,Rao,Pune,18,M,B+,0.047,18.6223,73.83334,5331586923,whitesandra@yahoo.com
D_00021,Leah,Fernandes,Pune,30,M,O+,0.08,18.49298,73.79252,4216073375,kellerraymond@yahoo.com
D_00022,Michelle,Naik,Mumbai,31,M,O+,0.006,19.00056,72.99002,5868501429,yreed@yahoo.com
D_00023,Samuel,Sharma,Goa,30,M,B+,0.055,15.30412,74.32106,6934060883,cindy14@hotmail.com
D_00024,Kyle,Rao,Nagpur,39,F,AB+,0.0,21.17299,79.08761,5648236629,torresjason@hotmail.com
D_00025,Catherine,Sharma,Goa,46,F,O+,0.0,15.36258,74.05125,7773872148,emilywalker@gmail.com
D_00026,Dylan,Bhagat,Goa,27,M,B+,0.156,15.22885,74.13015,3791769367,staffordmichelle@gmail.com
D_00027,Kimberly,Fernandes,Nagpur,18,F,O+,0.083,21.15377,79.04792,2870831727,stephanie79@hotmail.com
D_00028,Patricia,Parab,Goa,38,F,A-,0.082,15.34221,74.05082,8727743487,reevesjimmy@yahoo.com
D_00029,Luis,Patel,Nagpur,40,F,AB+,0.0,21.08314,79.06244,2236231665,clarkrobert@hotmail.com
D_00030,Sophia,Rao,Goa,28,F,Bombay(Oh),0.94,15.40841,74.32713,9670546688,joshuatucker@yahoo.com
D_00031,Matthew,Sawant,Goa,19,F,AB+,0.044,15.32009,74.18655,2729806990,qwhite@yahoo.com
D_00032,Mark,Singh,Nagpur,34,F,A+,0.052,21.19521,79.18557,5564641708,harringtondenise@gmail.com
D_00033,Stefanie,Fernandes,Goa,50,M,O+,0.114,15.32275,74.06685,0923271937,stricklandfrank@yahoo.com
D_00034,Daniel,Sharma,Nagpur,24,M,O-,0.0,21.20456,79.01184,4966319314,reedross@yahoo.com
D_00035,Casey,Bhagat,Mumbai,40,M,A+,0.185,19.15307,72.91072,0671657262,umarshall@hotmail.com
D_00036,Joseph,Sawant,Nagpur,40,M,O+,0.048,21.03621,79.02646,1473799650,zlewis@yahoo.com
D_00037,Matthew,Khan,Nagpur,29,F,B+,0.166,21.14684,79.20448,8083136783,davisjeffrey@hotmail.com
D_00038,John,Sharma,Pune,32,M,B+,0.003,18.44336,73.93487,7885685574,griffithleslie@hotmail.com
D_00039,Amanda,Parab,Bengaluru,36,F,Bombay(Oh),0.946,12.95372,77.65172,3374989413,kevinerickson@gmail.com
D_00040,Joshua,Fernandes,Mumbai,42,F,O+,0.073,19.0398,72.93986,8427109477,kingmichelle@gmail.com
D_00041,Lynn,Khan,Goa,33,F,O+,0.059,15.31643,74.02434,7190229413,kimberlyjames@yahoo.com
D_00042,Kenneth,Bhagat,Pune,42,M,O-,0.063,18.53888,73.79199,4990913341,moorericky@hotmail.com
D_00043,Brittney,Sharma,Mumbai,18,F,AB+,0.013,19.16264,72.962,0344713493,deborahkerr@gmail.com
D_00044,Charles,Sharma,Bengaluru,32,M,O+,0.054,12.99596,77.61518,4994717464,cmiller@yahoo.com
D_00045,Jessica,Sawant,Pune,41,M,Bombay(Oh),0.983,18.56607,73.94755,0139904902,howard96@hotmail.com
D_00046,Lisa,Sharma,Bengaluru,33,M,A+,0.0,12.87939,77.47454,7565512567,gibsonleonard@yahoo.com
D_00047,Darrell,Singh,Pune,38,F,A+,0.0,18.70557,73.70732,8087603859,josephanderson@yahoo.com
D_00048,Samuel,Bhagat,Mumbai,47,F,B+,0.096,19.00455,72.85091,1093248086,pvalentine@gmail.com
D_00049,Tyrone,Naik,Goa,32,M,O+,0.057,15.24087,74.14132,8467737826,michellehill@yahoo.com
D_00050,Matthew,Patel,Bengaluru,32,M,O+,0.032,13.08067,77.6609,0449972787,ugibson@gmail.com
D_00051,Tina,Parab,Nagpur,24,M,A+,0.074,21.09286,79.15639,9636057662,molly71@hotmail.com
D_00052,Renee,Sharma,Goa,28,M,B+,0.044,15.23755,74.2569,2621745961,courtney78@gmail.com
D_00053,Christina,Rao,Bengaluru,19,M,Bombay(Oh),0.966,13.11284,77.627,4316117240,michael62@gmail.com
D_00054,Amanda,Naik,Bengaluru,18,F,B+,0.172,13.00178,77.72671,2219693792,ascott@yahoo.com
D_00055,Rachel,Patel,Bengaluru,36,M,O+,0.049,13.07295,77.53799,1759464743,patrickhoward@yahoo.com
D_00056,Victoria,Naik,Nagpur,19,F,O+,0.075,21.14424,79.01359,0640909743,christinebyrd@hotmail.com
D_00057,Katrina,Rao,Bengaluru,27,F,O+,0.037,13.10219,77.48019,1047095214,davidryan@yahoo.com
D_00058,Alyssa,Parab,Goa,36,M,B+,0.135,15.30398,74.31184,2474517123,gibbsalexander@hotmail.com
D_00059,David,Parab,Pune,32,M,Bombay(Oh),0.931,18.53632,73.80868,4965137098,reidsteven@hotmail.com
D_00060,Kevin,Singh,Bengaluru,25,M,O+,0.136,12.81981,77.69704,1200471138,ellen86@hotmail.com
D_00061,Julia,Singh,Goa,34,M,A+,0.009,15.28716,74.17107,6179640537,pollardmichael@hotmail.com
D_00062,Michael,Parab,Mumbai,25,M,O-,0.092,19.1468,72.84054,4317139005,caseyhubbard@gmail.com
D_00063,Brenda,Parab,Mumbai,40,F,O+,0.121,19.14797,72.90228,5290422842,howardkristina@hotmail.com
D_00064,Mario,Parab,Bengaluru,18,M,AB+,0.019,13.01574,77.53779,4026811775,ngordon@gmail.com
D_00065,Jessica,Naik,Nagpur,29,M,O-,0.135,21.18957,79.07202,7007661771,cameronhill@hotmail.com
D_00066,Brenda,Sharma,Goa,32,F,AB+,0.087,15.26667,74.14493,6984789611,abeasley@yahoo.com
D_00067,Maria,Patel,Nagpur,35,F,Bombay(Oh),0.893,21.20036,79.06338,6156545271,vdavis@yahoo.com
D_00068,Lisa,Patel,Mumbai,18,M,O+,0.038,19.22899,72.96292,9885165604,lanejason@hotmail.com
D_00069,Timothy,Khan,Pune,38,F,A+,0.041,18.61305,73.92003,5851493689,anthony44@yahoo.com
D_00070,Michael,Khan,Nagpur,18,M,AB-,0.119,21.08987,79.08749,2961201836,mitchellgriffith@hotmail.com
D_00071,Caitlyn,Parab,Mumbai,36,F,O+,0.062,19.00996,72.85199,2290147679,kariwilson@yahoo.com
D_00072,Daniel,Fernandes,Mumbai,37,M,A+,0.134,19.04134,72.89401,8403690034,mark07@hotmail.com
D_00073,Ryan,Patel,Goa,24,F,AB+,0.049,15.18345,74.0114,6838851606,barbara96@hotmail.com
D_00074,Danielle,Sawant,Nagpur,28,M,O+,0.08,20.98283,79.2138,1605297516,zwarren@yahoo.com
D_00075,Julie,Naik,Nagpur,37,M,Bombay(Oh),1.0,21.17162,79.02202,5218188355,jonathanthompson@gmail.com
D_00076,Kathleen,Parab,Nagpur,28,M,Bombay(Oh),0.993,21.03015,79.02067,2779979955,tramos@yahoo.com
D_00077,Brittany,Bhagat,Bengaluru,32,M,Bombay(Oh),0.911,12.98953,77.59561,8147700541,jford@hotmail.com
D_00078,Paula,Parab,Goa,27,M,O+,0.203,15.48136,74.1565,9359782071,benjaminzimmerman@yahoo.com
D_00079,Alexandria,Khan,Nagpur,53,F,B-,0.0,21.21559,79.10287,5546659051,umitchell@hotmail.com
D_00080,Tamara,Patel,Nagpur,42,M,A+,0.0,21.13318,78.9798,5192546291,lisa81@hotmail.com
D_00081,Ellen,Sawant,Nagpur,41,M,O+,0.031,21.17314,79.23829,0542357332,romeroamber@hotmail.com
D_00082,Nicole,Khan,Pune,39,F,AB+,0.003,18.57976,73.97483,5929622292,erica37@hotmail.com
D_00083,Justin,Naik,Nagpur,18,F,Bombay(Oh),1.0,21.24016,79.05067,3834735977,mburch@hotmail.com
D_00084,Devon,Sawant,Goa,18,F,B-,0.065,15.32135,74.1463,0758181412,mariahdavis@gmail.com
D_00085,Lisa,Patel,Mumbai,27,M,O+,0.091,19.07642,72.88146,0606853615,combsdebra@gmail.com
D_00086,Devin,Fernandes,Mumbai,42,M,O+,0.167,18.96651,72.92054,7277901043,srodriguez@gmail.com
D_00087,Kevin,Singh,Nagpur,47,M,O+,0.016,21.17239,79.02832,3697117980,kellysmith@yahoo.com
D_00088,John,Bhagat,Bengaluru,42,M,O+,0.068,12.9852,77.68686,2185188888,reidtina@yahoo.com
D_00089,Julie,Sawant,Mumbai,22,M,A-,0.144,19.12763,72.98719,1531952058,zwelch@gmail.com
D_00090,Bryan,Patel,Nagpur,40,M,O+,0.003,21.00733,79.20375,0430305486,mullinsjames@yahoo.com
D_00091,Michelle,Singh,Goa,48,M,AB+,0.0,15.41949,74.12993,5415667652,laurie61@yahoo.com
D_00092,Carrie,Singh,Mumbai,29,F,Bombay(Oh),0.867,19.07482,72.94141,8451154479,sergio59@yahoo.com
D_00093,Joshua,Singh,Bengaluru,18,F,A+,0.063,12.8062,77.58747,1658202970,michael90@hotmail.com
D_00094,Eric,Naik,Goa,39,F,O+,0.075,15.2112,74.16301,5571928565,fitzgeraldvictor@yahoo.com
D_00095,Robin,Patel,Pune,26,F,B+,0.0,18.44154,73.89702,4473947312,zosborn@hotmail.com
D_00096,Tammy,Sawant,Pune,32,F,O+,0.0,18.40567,73.84138,5188442258,joelsnyder@yahoo.com
D_00097,Angela,Fernandes,Mumbai,30,M,AB+,0.079,19.02002,72.89482,7829114678,martinezlogan@gmail.com
D_00098,Shannon,Rao,Bengaluru,26,M,O+,0.0,12.91269,77.64096,2892268018,marcusfletcher@yahoo.com
D_00099,Stacey,Parab,Bengaluru,48,M,A+,0.048,12.85038,77.70395,1438424981,georgeweber@hotmail.com
D_00100,Matthew,Sharma,Pune,32,M,O+,0.058,18.58851,73.77767,0109439690,timothy64@yahoo.com
D_00101,Charles,Fernandes,Mumbai,18,M,B-,0.12,19.06577,72.80126,2767735925,kathleenrobertson@gmail.com
D_00102,Luis,Fernandes,Pune,21,M,O+,0.047,18.50545,73.85288,1473210469,sarah53@gmail.com
D_00103,Tyrone,Rao,Bengaluru,31,F,A+,0.084,13.10657,77.66513,7470168733,campbellcarla@hotmail.com
D_00104,Emily,Singh,Bengaluru,27,M,A-,0.109,13.16155,77.67576,8016245650,michaelroberts@yahoo.com
D_00105,William,Sharma,Pune,41,M,O+,0.105,18.45035,73.74608,9912165585,cporter@gmail.com
D_00106,Derrick,Sawant,Pune,28,M,B+,0.068,18.52262,73.86689,7872982595,brittney88@hotmail.com
D_00107,Tracy,Parab,Bengaluru,26,M,B+,0.037,12.91955,77.55563,7055169409,jennifersilva@gmail.com
D_00108,Alexandria,Naik,Pune,35,M,AB+,0.056,18.32018,73.91147,2309130756,nshaw@yahoo.com
D_00109,Monique,Fernandes,Goa,37,F,Bombay(Oh),0.931,15.25316,74.18443,2838578652,erica49@yahoo.com
D_00110,James,Sharma,Nagpur,41,F,B+,0.0,21.30927,79.21777,4843443757,david86@yahoo.com
D_00111,Loretta,Bhagat,Mumbai,18,F,A+,0.112,19.01494,72.73331,4041574733,derrick99@gmail.com
D_00112,John,Naik,Mumbai,20,M,O+,0.123,18.95406,72.94152,3016571208,wsantos@yahoo.com
D_00113,Manuel,Fernandes,Goa,23,F,A+,0.091,15.24715,74.12779,1938026206,smithashley@gmail.com
D_00114,Sarah,Sawant,Nagpur,43,F,O+,0.099,21.09764,79.14902,4788728743,twong@gmail.com
D_00115,Alexis,Sharma,Mumbai,37,M,AB+,0.03,18.87827,72.81395,4932966851,thomasboyle@gmail.com
D_00116,Jose,Parab,Goa,36,M,Bombay(Oh),1.0,15.31288,74.13115,7454990453,erik84@hotmail.com
D_00117,David,Fernandes,Bengaluru,27,M,B+,0.058,12.99861,77.56165,5933272795,kathleenbecker@hotmail.com
D_00118,Morgan,Khan,Goa,18,M,AB+,0.078,15.34278,74.20679,8785191088,franklinbond@yahoo.com
D_00119,Darren,Naik,Pune,18,M,O+,0.03,18.6165,73.82405,9718707286,tchambers@hotmail.com
D_00120,Andrew,Fernandes,Goa,18,M,Bombay(Oh),1.0,15.38343,74.05652,0391065180,robert26@yahoo.com
D_00121,Victoria,Parab,Pune,34,F,A+,0.099,18.58675,73.67981,7661825128,maryavila@yahoo.com
D_00122,Steven,Singh,Goa,23,M,AB+,0.04,15.31252,74.16951,8633752431,allencarlos@hotmail.com
D_00123,Arthur,Sawant,Goa,33,F,B+,0.102,15.34992,74.30566,3067383028,barbara53@yahoo.com
D_00124,Nancy,Bhagat,Goa,47,F,Bombay(Oh),1.0,15.21199,74.05864,6440892687,heather62@yahoo.com
D_00125,Nicholas,Khan,Goa,29,F,AB+,0.011,15.3823,74.0832,3342708668,jonathanrivera@gmail.com
D_00126,Sandra,Sawant,Mumbai,41,F,O+,0.139,19.04181,72.83349,1830469901,timothybooth@yahoo.com
D_00127,Kevin,Bhagat,Nagpur,24,M,B+,0.018,21.17887,79.23834,3317393638,wferguson@yahoo.com
D_00128,Jose,Patel,Nagpur,23,F,Bombay(Oh),0.804,21.15945,79.15505,7175355609,angela99@hotmail.com
D_00129,Robert,Naik,Goa,56,M,A+,0.096,15.3217,74.03396,3536937854,jessicabell@gmail.com
D_00130,Jennifer,Bhagat,Goa,34,F,B+,0.112,15.44187,74.17122,2808010062,robinsonstephen@gmail.com
D_00131,Christine,Fernandes,Pune,47,M,Bombay(Oh),0.924,18.67096,73.96433,7008860084,ldrake@gmail.com
D_00132,Samantha,Naik,Pune,57,F,O+,0.086,18.51318,73.91919,3398454615,veronicaperez@hotmail.com
D_00133,Maria,Sharma,Pune,21,M,O+,0.0,18.50776,73.82255,0166687002,ariel18@gmail.com
D_00134,Jerry,Parab,Pune,44,M,O+,0.019,18.50201,73.90695,4014890250,thickman@gmail.com
D_00135,Anne,Singh,Pune,29,M,O+,0.016,18.49963,73.73645,8562185016,unovak@gmail.com
D_00136,Cynthia,Parab,Bengaluru,42,F,O+,0.0,13.03596,77.58202,7358662961,millereric@hotmail.com
D_00137,Kristen,Fernandes,Pune,57,F,A+,0.063,18.49889,73.76818,6551104754,ryanhawkins@hotmail.com
D_00138,Ricky,Singh,Bengaluru,30,M,B+,0.018,12.909,77.64854,1581995604,ashleyjackson@yahoo.com
D_00139,Gavin,Khan,Bengaluru,24,M,AB+,0.035,12.96898,77.55113,4472126464,sheryl79@hotmail.com
D_00140,James,Naik,Mumbai,18,F,O+,0.048,19.18709,72.66495,2406596575,malik37@yahoo.com
D_00141,Gregory,Bhagat,Bengaluru,18,M,O+,0.041,12.94418,77.56488,5479356465,erinpierce@hotmail.com
D_00142,Steven,Fernandes,Nagpur,36,M,O+,0.021,21.11685,79.08263,7416724342,eewing@hotmail.com
D_00143,Richard,Fernandes,Bengaluru,26,F,O+,0.104,13.02933,77.50428,8058911352,vrasmussen@yahoo.com
D_00144,Daniel,Parab,Pune,40,F,AB+,0.013,18.49235,73.83836,4388899375,michaeljohnson@gmail.com
D_00145,Kenneth,Khan,Pune,21,F,O+,0.061,18.49152,73.94945,1254573875,tflores@gmail.com
D_00146,Lisa,Naik,Bengaluru,19,M,O+,0.039,12.83802,77.73577,0512382825,laurensoto@gmail.com
D_00147,Danielle,Patel,Nagpur,19,F,O+,0.118,21.02127,79.13668,6093796603,lloydamanda@yahoo.com
D_00148,Mark,Sawant,Bengaluru,41,F,AB+,0.058,12.83132,77.55101,1478596969,rwilliamson@hotmail.com
D_00149,Lauren,Khan,Bengaluru,35,M,O+,0.0,12.94251,77.59004,2513412528,baileyhenderson@yahoo.com
D_00150,Cynthia,Naik,Pune,19,M,B-,0.085,18.47057,73.82325,8274225790,jamescruz@hotmail.com
D_00151,William,Khan,Bengaluru,36,F,O+,0.0,12.98727,77.51633,6767721903,amandajackson@yahoo.com
D_00152,Ariel,Rao,Nagpur,48,F,O+,0.089,21.10827,79.13035,8819148580,pgarcia@gmail.com
D_00153,Kenneth,Patel,Bengaluru,25,F,B+,0.031,12.82433,77.49223,7451713395,kristenli@gmail.com
D_00154,Ashley,Sawant,Mumbai,18,F,O+,0.139,19.04816,72.89358,9825449481,michelle22@gmail.com
D_00155,Dustin,Sharma,Bengaluru,22,F,O+,0.083,12.89774,77.48647,3672946671,heather57@yahoo.com
D_00156,Mark,Parab,Goa,32,F,B+,0.099,15.46581,74.09964,1751863637,amy29@yahoo.com
D_00157,Kristina,Patel,Goa,57,M,O+,0.035,15.25325,74.13376,0170127706,nancymcdowell@gmail.com
D_00158,Diamond,Bhagat,Mumbai,33,M,O+,0.073,19.04783,72.8971,1520643611,andersonjeremy@hotmail.com
D_00159,Sean,Rao,Bengaluru,39,M,AB+,0.0,12.92144,77.7396,5162713611,derrick22@gmail.com
D_00160,Alyssa,Rao,Nagpur,18,M,A+,0.087,21.05878,79.16256,9275326973,lawrencepatrick@yahoo.com
D_00161,Leonard,Khan,Nagpur,33,F,AB+,0.0,21.13985,79.13785,3413899940,juliephillips@gmail.com
D_00162,Kristen,Patel,Goa,44,M,AB+,0.093,15.36464,74.17349,7613791805,rdiaz@gmail.com
D_00163,Kathryn,Parab,Nagpur,36,M,B+,0.07,21.14019,78.95532,0910430068,fmiles@hotmail.com
D_00164,Amanda,Sawant,Bengaluru,36,F,Bombay(Oh),0.939,13.03708,77.60531,4141832856,pblair@gmail.com
D_00165,John,Bhagat,Bengaluru,32,M,O+,0.061,12.96844,77.64912,1799042102,alexandra42@yahoo.com
D_00166,David,Parab,Nagpur,21,M,O-,0.144,21.03339,79.12828,1056481491,brian92@yahoo.com
D_00167,Eric,Rao,Bengaluru,46,F,O+,0.02,12.95665,77.55942,9138000307,sarahmathews@hotmail.com
D_00168,Linda,Rao,Bengaluru,18,F,A+,0.059,13.04102,77.61724,3536541951,lindajarvis@yahoo.com
D_00169,Casey,Sharma,Nagpur,26,M,O+,0.1,21.15238,79.17344,4451870534,stevenvargas@yahoo.com
D_00170,Whitney,Rao,Nagpur,18,F,O-,0.0,21.21939,79.11331,8320603850,dalton83@yahoo.com
D_00171,Travis,Patel,Pune,18,F,O+,0.0,18.48679,73.83416,2410386571,danafoster@hotmail.com
D_00172,Ashley,Patel,Pune,21,F,Bombay(Oh),0.954,18.36571,73.76011,2344565574,kimberlyrichards@gmail.com
D_00173,Daniel,Parab,Pune,31,M,O+,0.094,18.59915,73.83958,7561853747,lindseytorres@hotmail.com
D_00174,Heidi,Naik,Pune,18,F,B+,0.084,18.61377,73.98639,3521356804,jbond@hotmail.com
D_00175,Andrea,Sharma,Mumbai,25,M,A+,0.119,19.02615,72.83326,7121003236,samantha10@gmail.com
D_00176,James,Sawant,Goa,39,F,B+,0.142,15.26943,74.03011,2151070296,lvega@yahoo.com
D_00177,Jason,Sawant,Goa,34,M,O+,0.014,15.25512,74.17463,4472099934,rbrown@yahoo.com
D_00178,Derrick,Khan,Nagpur,28,F,A-,0.059,21.07859,79.10138,8380657875,bnelson@yahoo.com
D_00179,Carla,Sharma,Nagpur,38,F,A+,0.111,21.16867,79.11496,4078593213,gallagherstacie@hotmail.com
D_00180,Meghan,Bhagat,Goa,40,F,O+,0.042,15.15942,74.02341,5223955905,marycochran@yahoo.com
D_00181,Amber,Khan,Bengaluru,31,M,O+,0.069,12.93019,77.6125,7010393087,lindsaypeterson@gmail.com
D_00182,Samantha,Singh,Nagpur,45,F,O+,0.0,21.24225,79.11565,0029218515,kevin22@hotmail.com
D_00183,Stacy,Bhagat,Pune,37,F,AB+,0.115,18.56711,73.82796,5289539264,rushstacy@yahoo.com
D_00184,Melissa,Khan,Nagpur,37,M,O+,0.053,21.17825,79.1454,2959391725,gary15@yahoo.com
D_00185,Alexander,Rao,Goa,30,F,O+,0.047,15.40987,74.1759,3154100676,ybell@gmail.com
D_00186,Maria,Khan,Nagpur,36,M,O+,0.03,21.09064,79.1278,2710405411,jessicapayne@gmail.com
D_00187,Matthew,Khan,Pune,18,F,O+,0.067,18.53569,73.86041,0629620153,donna43@gmail.com
D_00188,Brandon,Sawant,Nagpur,34,M,O+,0.04,21.26541,79.10529,2050614973,daniellerowland@yahoo.com
D_00189,Megan,Singh,Bengaluru,38,M,A+,0.019,12.96398,77.61692,6774186256,bakersteven@gmail.com
D_00190,Mary,Khan,Bengaluru,30,M,O+,0.0,12.98564,77.62728,2115869380,parmstrong@yahoo.com
D_00191,Kent,Parab,Nagpur,43,M,A+,0.0,21.15644,79.03219,0898992172,bradmiller@hotmail.com
D_00192,Ryan,Rao,Goa,30,M,AB+,0.0,15.32867,74.08194,9451168685,buchanancindy@hotmail.com
D_00193,Kimberly,Naik,Nagpur,18,F,B+,0.0,21.10138,79.23869,6229991191,pbaker@yahoo.com
D_00194,Ashley,Patel,Nagpur,43,F,B-,0.076,21.19769,79.16718,0246299606,xmccall@gmail.com
D_00195,Matthew,Fernandes,Nagpur,50,F,O+,0.006,21.19782,79.08027,4471324754,scottmcintyre@yahoo.com
D_00196,Joyce,Khan,Pune,24,M,A+,0.0,18.59223,73.84017,0821486289,marywright@yahoo.com
D_00197,Brent,Rao,Mumbai,31,M,Bombay(Oh),0.986,18.97588,72.9932,3457861035,susanwells@hotmail.com
D_00198,Michael,Fernandes,Goa,39,M,Bombay(Oh),1.0,15.32087,74.1056,4140602933,xpalmer@hotmail.com
D_00199,Alan,Bhagat,Mumbai,33,M,AB+,0.125,19.12742,72.98403,2903494466,stevenbyrd@hotmail.com
D_00200,Randy,Patel,Mumbai,35,M,O+,0.002,18.99354,72.87372,0858994417,michelle44@gmail.com
D_00201,Edward,Patel,Goa,33,F,B-,0.006,15.29609,74.00954,0965207446,matthewreeves@hotmail.com
D_00202,Amanda,Parab,Bengaluru,29,M,A+,0.079,12.92083,77.67426,5842824172,destiny35@gmail.com
D_00203,Julie,Rao,Pune,18,F,O+,0.068,18.48422,73.66279,6554947170,kennedyjames@gmail.com
D_00204,Mikayla,Sawant,Bengaluru,31,M,A+,0.031,13.00137,77.63291,8460223569,kimberlyfreeman@hotmail.com
D_00205,Valerie,Sawant,Pune,47,M,O+,0.104,18.52011,73.76403,0074329271,epowell@yahoo.com
D_00206,Adam,Singh,Mumbai,29,F,A+,0.056,19.00589,72.88071,5058300335,tgordon@gmail.com
D_00207,Cameron,Singh,Nagpur,49,F,AB+,0.042,21.06567,79.06571,4478985625,stacyhull@yahoo.com
D_00208,Andrew,Patel,Mumbai,34,M,O+,0.0,19.03652,72.8421,2309821506,wheelerbrandon@gmail.com
D_00209,Desiree,Parab,Pune,38,M,O+,0.08,18.52517,73.80495,0167618472,qstanley@hotmail.com
D_00210,Joseph,Singh,Mumbai,33,F,AB+,0.088,19.02964,72.96482,6189141173,michaelortiz@gmail.com
D_00211,Benjamin,Sharma,Nagpur,49,F,A+,0.02,21.31182,79.03306,3753001197,cummingscraig@yahoo.com
D_00212,Dawn,Parab,Bengaluru,38,F,O+,0.116,12.88907,77.55226,4470120455,smithdevon@hotmail.com
D_00213,George,Bhagat,Nagpur,32,F,B+,0.066,21.284,79.12311,7941552166,pmarsh@gmail.com
D_00214,Daniel,Parab,Nagpur,42,F,O-,0.054,21.10562,79.10513,2169797296,timothyfreeman@yahoo.com
D_00215,Scott,Rao,Goa,19,F,Bombay(Oh),0.877,15.26065,74.24992,4508993588,timothyalvarado@hotmail.com
D_00216,Paul,Sawant,Bengaluru,30,F,AB+,0.149,12.84666,77.75474,0287721753,andreagray@gmail.com
D_00217,Christian,Singh,Bengaluru,38,F,Bombay(Oh),0.821,12.95779,77.66529,9717751701,petersenlatoya@hotmail.com
D_00218,Dana,Rao,Nagpur,45,F,A-,0.049,21.18843,78.9879,7550375899,davisdonna@gmail.com
D_00219,Matthew,Fernandes,Goa,26,M,Bombay(Oh),0.966,15.33882,74.14485,8851027261,davidphelps@gmail.com
D_00220,Stephen,Naik,Nagpur,18,M,AB+,0.077,21.1717,79.06488,5160917798,tranryan@hotmail.com
D_00221,Timothy,Rao,Bengaluru,43,F,B+,0.0,13.03334,77.36672,9221699586,raymond54@yahoo.com
D_00222,Linda,Fernandes,Mumbai,40,F,O+,0.028,19.10594,72.87075,6984858333,tinasantos@gmail.com
D_00223,William,Fernandes,Goa,31,F,B+,0.114,15.26188,74.15172,1587996846,jamesbrian@gmail.com
D_00224,James,Patel,Pune,29,F,B+,0.092,18.35279,73.87703,4420438057,juliahoffman@gmail.com
D_00225,William,Fernandes,Pune,28,F,A+,0.063,18.64046,73.92472,0666580043,kari89@gmail.com
D_00226,Kimberly,Sharma,Mumbai,44,M,AB+,0.036,19.14377,72.9755,4721228160,david94@gmail.com
D_00227,Mark,Parab,Goa,29,F,B-,0.1,15.38172,74.1431,0259094798,susanmeyer@hotmail.com
D_00228,Erik,Rao,Bengaluru,30,M,Bombay(Oh),0.848,12.97547,77.5396,1533555439,wilsonmichael@gmail.com
D_00229,Rebecca,Rao,Nagpur,41,F,O+,0.027,21.15209,78.92834,0561648408,stucker@hotmail.com
D_00230,James,Bhagat,Mumbai,23,F,A+,0.13,18.90793,73.11272,1288013361,burgesseric@yahoo.com
D_00231,Jennifer,Patel,Nagpur,38,M,Bombay(Oh),0.847,21.23445,79.00501,1102481934,bhamilton@yahoo.com
D_00232,Emily,Naik,Bengaluru,42,F,B+,0.052,12.99373,77.54254,9190158144,qjames@gmail.com
D_00233,Thomas,Rao,Bengaluru,33,F,O+,0.028,13.04121,77.63425,2684245088,armstrongphillip@hotmail.com
D_00234,Stacey,Khan,Bengaluru,27,F,Bombay(Oh),0.923,13.04864,77.61921,3536822239,emilybradley@gmail.com
D_00235,Melissa,Fernandes,Nagpur,38,F,O+,0.003,21.23424,79.18316,8141413975,mitchellchad@gmail.com
D_00236,Louis,Naik,Pune,42,M,AB+,0.047,18.45867,73.88043,5949299556,kristenjoseph@hotmail.com
D_00237,Ryan,Parab,Goa,29,F,O+,0.158,15.4284,74.16028,2577754781,michele28@gmail.com
D_00238,Jose,Parab,Bengaluru,39,M,O+,0.092,13.05535,77.6402,1080996930,jvaldez@yahoo.com
D_00239,Philip,Patel,Goa,30,F,O+,0.041,15.2873,74.13405,2788165803,seanwhite@hotmail.com
D_00240,Donna,Naik,Bengaluru,23,F,O+,0.158,12.86936,77.4631,7503731453,paul70@gmail.com
D_00241,Tina,Parab,Goa,48,F,O+,0.14,15.24818,74.01815,1844989266,nicholas38@yahoo.com
D_00242,Michael,Patel,Pune,32,M,O+,0.066,18.34047,73.80206,7790827231,jacobcox@hotmail.com
D_00243,Lisa,Naik,Mumbai,42,M,O+,0.212,18.96483,72.74607,6517773926,ashleymartin@hotmail.com
D_00244,William,Naik,Mumbai,29,M,Bombay(Oh),1.0,19.1304,72.92374,0242869904,kdillon@gmail.com
D_00245,Maria,Sharma,Pune,18,M,O+,0.025,18.46008,73.83425,9298425799,banderson@gmail.com
D_00246,Alexandra,Rao,Mumbai,18,M,O+,0.08,19.15367,72.8283,2912799088,rachelryan@gmail.com
D_00247,Penny,Singh,Pune,22,F,B+,0.019,18.44123,73.93196,8650863765,eanderson@gmail.com
D_00248,Renee,Rao,Nagpur,50,F,A+,0.021,21.06826,79.13228,4986430098,spena@yahoo.com
D_00249,Robert,Sawant,Mumbai,31,F,AB+,0.118,18.94856,72.91294,2694486959,jarnold@yahoo.com
D_00250,Guy,Rao,Mumbai,36,M,O+,0.047,19.02968,72.8828,4495621372,zhartman@hotmail.com
D_00251,Christina,Khan,Nagpur,24,M,O+,0.0,21.14971,79.09145,2601279611,lynchjenny@yahoo.com
D_00252,Christina,Singh,Mumbai,29,M,B+,0.098,19.16795,72.85363,9027703843,christinacraig@yahoo.com
D_00253,John,Sawant,Bengaluru,29,F,O+,0.142,12.91413,77.66619,2146566938,jessica89@yahoo.com
D_00254,Michael,Parab,Goa,54,M,B+,0.028,15.31846,74.06144,3937690426,gordonmatthew@gmail.com
D_00255,Leah,Sharma,Nagpur,30,M,A+,0.004,21.1965,79.1213,8947697357,ewilson@yahoo.com
D_00256,Cynthia,Sharma,Nagpur,18,F,O+,0.043,21.24377,79.21807,3565880434,spencergregory@yahoo.com
D_00257,Michael,Rao,Pune,23,F,O+,0.112,18.51334,74.06308,2373334333,kimberlywilson@gmail.com
D_00258,Emma,Naik,Bengaluru,35,M,O+,0.033,13.04971,77.68292,9080759579,raymond92@gmail.com
D_00259,Alicia,Singh,Mumbai,26,M,B+,0.009,19.04567,72.86141,7808562718,craignicolas@gmail.com
D_00260,Mark,Patel,Pune,24,M,AB+,0.032,18.47347,73.8409,2843479552,xhaynes@yahoo.com
D_00261,Melissa,Sawant,Goa,35,M,O+,0.132,15.318,73.99953,7292931438,laurenrodgers@yahoo.com
D_00262,Linda,Sharma,Mumbai,38,M,O-,0.137,18.98219,72.77902,6728857448,vaughnbrian@yahoo.com
D_00263,Thomas,Bhagat,Nagpur,37,F,B+,0.064,21.0894,79.08374,7545588450,barbarasantos@hotmail.com
D_00264,Greg,Singh,Nagpur,22,F,O+,0.034,21.06654,79.13855,5587716947,kwelch@yahoo.com
D_00265,Melinda,Bhagat,Goa,42,F,Bombay(Oh),1.0,15.24046,74.22289,1253554496,lgutierrez@gmail.com
D_00266,David,Naik,Nagpur,32,M,AB+,0.099,21.10309,78.97563,4132611178,garciachristine@gmail.com
D_00267,Diana,Patel,Pune,33,M,A-,0.0,18.70595,73.88817,4334722820,imcdonald@yahoo.com
D_00268,Amy,Khan,Mumbai,21,M,O+,0.016,19.1163,72.92429,8299796884,lindaramos@yahoo.com
D_00269,Robert,Sawant,Pune,20,M,O+,0.0,18.3735,73.89734,4008254780,cannonlauren@hotmail.com
D_00270,Jerry,Parab,Mumbai,34,M,Bombay(Oh),0.98,19.14291,72.8802,8536866326,hendersonjohn@hotmail.com
D_00271,Lindsey,Naik,Bengaluru,41,F,AB+,0.045,12.97815,77.58669,4846312241,jackie73@yahoo.com
D_00272,Andrew,Rao,Mumbai,26,F,O+,0.048,19.12148,72.92567,8021442703,arobinson@yahoo.com
D_00273,Kristi,Naik,Nagpur,32,F,O+,0.06,21.18872,79.01632,5705120461,paulawright@yahoo.com
D_00274,Maria,Sharma,Bengaluru,56,F,AB+,0.0,12.95359,77.61041,3673037183,eric08@hotmail.com
D_00275,David,Rao,Mumbai,21,M,O+,0.045,19.07683,72.77275,4350313650,fosterjohn@gmail.com
D_00276,Bianca,Khan,Pune,18,F,O+,0.0,18.56102,73.86102,9251327195,jacquelinemoody@gmail.com
D_00277,Tony,Bhagat,Mumbai,19,M,O+,0.14,19.00085,72.86617,8573065240,amy73@hotmail.com
D_00278,Jacob,Singh,Bengaluru,25,M,Bombay(Oh),0.917,12.89428,77.62798,5749821827,shawn86@hotmail.com
D_00279,Jacob,Naik,Bengaluru,25,M,O+,0.065,12.98349,77.56763,9593518638,marcus51@gmail.com
D_00280,Alexandra,Sawant,Nagpur,18,F,O+,0.126,21.14705,79.0299,0220317310,brandon39@hotmail.com
D_00281,Chad,Naik,Goa,18,F,O+,0.099,15.09499,74.19875,7170586509,davenportchristian@gmail.com
D_00282,Susan,Rao,Mumbai,40,F,A+,0.078,19.17262,72.85237,1386338392,mirandabarbara@hotmail.com
D_00283,Stephen,Fernandes,Nagpur,26,F,O+,0.1,21.09968,78.88092,1228685289,megan66@hotmail.com
D_00284,Marcus,Fernandes,Mumbai,18,M,Bombay(Oh),1.0,18.99647,72.87522,9836845776,holmesvictoria@yahoo.com
D_00285,Adam,Fernandes,Nagpur,27,F,O-,0.036,21.14362,79.01354,3504888992,eric45@hotmail.com
D_00286,John,Naik,Nagpur,23,M,AB+,0.0,20.96158,79.0526,4196931572,benjamin96@gmail.com
D_00287,Kimberly,Rao,Mumbai,25,F,B+,0.151,19.02247,72.96089,5661390604,markwolfe@gmail.com
D_00288,Brent,Naik,Pune,46,M,Bombay(Oh),1.0,18.51333,73.93041,7998136462,dduncan@hotmail.com
D_00289,Raymond,Khan,Bengaluru,32,M,B+,0.0,13.07574,77.71952,6862278376,johnadams@yahoo.com
D_00290,Marcus,Sharma,Nagpur,29,F,A+,0.035,21.15289,79.22597,1665535590,chanson@gmail.com
D_00291,Sandra,Bhagat,Goa,18,F,O+,0.061,15.27007,74.13877,3521103924,shannon05@gmail.com
D_00292,Jody,Singh,Nagpur,27,F,A+,0.008,21.20022,79.18083,3884879206,george43@hotmail.com
D_00293,Christine,Bhagat,Goa,41,F,O+,0.052,15.39416,74.18152,7016451046,mckeetodd@hotmail.com
D_00294,Amanda,Sharma,Goa,34,F,AB+,0.0,15.19909,74.0838,3878003845,reedmichael@hotmail.com
D_00295,Kevin,Rao,Nagpur,25,M,Bombay(Oh),0.966,21.18227,79.2614,0460843256,robertberry@yahoo.com
D_00296,Tara,Bhagat,Bengaluru,39,M,O+,0.09,13.08805,77.73854,7823298324,dianacunningham@gmail.com
D_00297,Lonnie,Sawant,Pune,21,M,O+,0.0,18.4912,73.78956,2520566474,jackfarmer@hotmail.com
D_00298,Christina,Sharma,Nagpur,27,M,B+,0.013,21.19216,79.10002,9330517289,ihenry@gmail.com
D_00299,James,Patel,Mumbai,40,F,AB+,0.011,19.10059,72.94296,6046333127,bclay@yahoo.com
D_00300,Kimberly,Parab,Goa,44,F,AB+,0.083,15.36631,74.05891,5699988081,aprilfoster@hotmail.com
D_00301,Benjamin,Naik,Bengaluru,33,F,Bombay(Oh),0.885,13.02463,77.68848,8034764472,vaughnrebecca@yahoo.com
D_00302,Maria,Khan,Nagpur,40,F,B+,0.039,21.13825,79.08133,1812982665,tgarza@gmail.com
D_00303,Nicole,Patel,Nagpur,35,M,O+,0.095,21.24486,79.0899,4521117518,nicholasjames@gmail.com
D_00304,Rhonda,Khan,Goa,50,M,AB+,0.071,15.14737,74.13027,2220644742,deanjohnny@yahoo.com
D_00305,Tyler,Parab,Pune,30,F,A+,0.0,18.62358,73.91055,8097339776,sanchezamy@hotmail.com
D_00306,Courtney,Fernandes,Bengaluru,44,F,B+,0.039,13.03788,77.52046,0220502099,rodriguezvictoria@gmail.com
D_00307,Emily,Bhagat,Pune,20,F,O+,0.102,18.65399,73.88827,7950145561,thomas14@yahoo.com
D_00308,Alison,Singh,Bengaluru,18,F,B+,0.0,12.99384,77.71098,3901981794,alicia95@gmail.com
D_00309,Christina,Sawant,Nagpur,49,F,AB-,0.04,21.20359,79.05837,8772934301,laurenduarte@yahoo.com
D_00310,Brandon,Fernandes,Pune,48,F,A+,0.022,18.38449,73.97328,8303441448,jenningsmatthew@hotmail.com
D_00311,Ashley,Rao,Pune,26,M,O+,0.158,18.39835,73.95771,2355770272,abowers@hotmail.com
D_00312,Brian,Patel,Bengaluru,50,F,O+,0.104,12.98172,77.53957,9588039551,tonya82@hotmail.com
D_00313,Catherine,Patel,Nagpur,39,M,O+,0.0,21.22773,79.1356,9145046173,aliciathompson@yahoo.com
D_00314,Kristen,Fernandes,Nagpur,41,F,O+,0.094,21.23507,79.03626,1780782357,kaylagarcia@hotmail.com
D_00315,Erica,Khan,Goa,24,F,A+,0.0,15.20796,74.10851,3076810409,garciakatie@hotmail.com
D_00316,Larry,Bhagat,Goa,33,F,O+,0.119,15.3377,74.01476,3533448571,danny98@hotmail.com
D_00317,Curtis,Parab,Nagpur,29,M,AB+,0.032,21.24348,79.13477,8542493214,bwilliams@yahoo.com
D_00318,Rebecca,Sharma,Nagpur,19,M,O+,0.047,21.24169,78.93321,1601662997,lisa81@yahoo.com
D_00319,Ashley,Sawant,Nagpur,35,M,B+,0.053,21.15707,78.94672,7174773329,hollyortega@yahoo.com
D_00320,Shawn,Parab,Nagpur,28,F,AB+,0.1,21.22844,79.0726,1715772459,sullivanjennifer@gmail.com
D_00321,Mark,Fernandes,Bengaluru,31,F,O+,0.149,12.87801,77.36482,4876963938,petersonlisa@hotmail.com
D_00322,Ryan,Parab,Pune,35,F,A-,0.005,18.59241,73.91895,9583219719,shortgregory@yahoo.com
D_00323,Chad,Fernandes,Nagpur,30,M,B-,0.05,21.20709,79.18635,9657013290,peter97@gmail.com
D_00324,Jamie,Singh,Mumbai,23,M,O-,0.014,19.1044,72.86001,4946519098,woodana@gmail.com
D_00325,Aaron,Naik,Goa,31,M,A+,0.053,15.41872,74.10231,1403696566,elainewells@gmail.com
D_00326,Angela,Khan,Mumbai,18,M,Bombay(Oh),0.899,19.08413,72.78722,6242201027,dawnperry@yahoo.com
D_00327,Patricia,Rao,Goa,18,F,O-,0.034,15.30466,74.16528,9278687653,lanemelanie@gmail.com
D_00328,Jennifer,Bhagat,Mumbai,18,F,Bombay(Oh),1.0,18.98717,72.92306,6895009751,jessicafox@yahoo.com
D_00329,Steven,Bhagat,Pune,24,F,AB+,0.039,18.39119,73.94988,8913718949,harrisonwilliam@yahoo.com
D_00330,Audrey,Fernandes,Nagpur,29,M,O+,0.088,21.2272,79.30125,6544209494,ashleydouglas@yahoo.com
D_00331,Lisa,Patel,Bengaluru,21,F,B+,0.0,12.90539,77.60149,4712814429,figueroacassandra@hotmail.com
D_00332,Joanne,Singh,Goa,49,M,O+,0.0,15.26343,74.2848,5243728051,amullins@yahoo.com
D_00333,John,Sawant,Mumbai,30,F,A+,0.159,19.07766,72.81946,2395041027,wreese@hotmail.com
D_00334,Jesus,Singh,Goa,24,F,O+,0.034,15.24902,74.1722,7428604765,stephanie69@hotmail.com
D_00335,Michele,Singh,Goa,35,M,AB+,0.027,15.30911,74.25397,4414967393,amy01@gmail.com
D_00336,Robert,Rao,Pune,35,F,AB+,0.008,18.49156,73.89761,7534430091,ericksondavid@hotmail.com
D_00337,David,Naik,Mumbai,30,F,A+,0.25,19.14665,72.87147,1244717465,kimberly66@yahoo.com
D_00338,Wendy,Naik,Bengaluru,45,M,Bombay(Oh),0.922,13.05467,77.63503,4271739627,probinson@gmail.com
D_00339,Rita,Parab,Nagpur,41,F,O+,0.027,21.15486,78.97314,1011947072,edward56@hotmail.com
D_00340,Adam,Singh,Pune,39,F,O+,0.0,18.61545,73.89964,7661830671,evelyn60@hotmail.com
D_00341,Wendy,Naik,Nagpur,25,F,AB+,0.131,21.18458,79.02049,5851743280,omosley@hotmail.com
D_00342,Michael,Patel,Nagpur,26,F,Bombay(Oh),0.894,21.12456,79.12687,7320309376,zferguson@yahoo.com
D_00343,Tammy,Parab,Goa,52,F,A+,0.037,15.22289,74.15789,0505061387,sandyjohnson@gmail.com
D_00344,Tracy,Singh,Pune,37,F,O+,0.01,18.53572,73.876,7903202041,meyersdaniel@yahoo.com
D_00345,Brooke,Naik,Mumbai,30,F,B+,0.139,18.99101,72.91196,1365651982,matthewmartinez@gmail.com
D_00346,Katherine,Naik,Mumbai,49,M,Bombay(Oh),0.991,19.07862,72.85635,5827390219,amiller@gmail.com
D_00347,Sara,Singh,Nagpur,35,F,AB+,0.0,21.16135,79.05995,6723248763,jennifersalazar@gmail.com
D_00348,Courtney,Patel,Bengaluru,28,F,AB+,0.0,13.11623,77.62266,5608331819,stevensims@gmail.com
D_00349,Joshua,Patel,Goa,44,F,O+,0.039,15.12955,74.07537,1277220054,christina70@gmail.com
D_00350,Joy,Sawant,Mumbai,26,M,O+,0.089,19.11967,72.81051,2078113799,jerry15@gmail.com
D_00351,Corey,Naik,Nagpur,44,M,O+,0.136,21.27503,79.06241,3631797062,paultaylor@hotmail.com
D_00352,James,Singh,Pune,32,M,A-,0.017,18.51216,73.95471,4352090421,kathleenrobinson@yahoo.com
D_00353,Cassandra,Parab,Pune,27,F,B+,0.09,18.42608,73.95171,9831687397,pfitzgerald@gmail.com
D_00354,Mark,Khan,Goa,26,M,O+,0.099,15.26713,74.16594,9290600780,spacheco@gmail.com
D_00355,Shaun,Sawant,Bengaluru,21,F,A+,0.046,12.98171,77.74971,1806325431,jacquelinehodge@hotmail.com
D_00356,Brandy,Sharma,Bengaluru,39,F,O+,0.043,13.05389,77.48926,7262570165,smullins@hotmail.com
D_00357,Amy,Sawant,Pune,38,F,A+,0.155,18.55319,73.8374,1950850165,michael81@hotmail.com
D_00358,Jenna,Naik,Pune,33,M,O+,0.115,18.38401,73.67454,2538179335,eramirez@yahoo.com
D_00359,Michael,Rao,Mumbai,35,M,O+,0.05,19.03317,72.87046,8817884795,millerrachael@yahoo.com
D_00360,Susan,Patel,Nagpur,33,F,AB+,0.026,21.11098,79.14825,1241272380,thomasfisher@hotmail.com
D_00361,Deanna,Parab,Nagpur,26,M,AB+,0.12,21.07096,79.17508,3103856955,kellis@gmail.com
D_00362,Rachel,Naik,Bengaluru,22,M,B+,0.085,12.99876,77.54294,2437540254,jennifermitchell@gmail.com
D_00363,Mary,Rao,Pune,39,F,O+,0.0,18.51885,73.83245,2310592745,wadetiffany@gmail.com
D_00364,Nathan,Singh,Nagpur,36,F,O+,0.055,21.22981,79.01908,8410672752,deborah47@yahoo.com
D_00365,Tara,Parab,Goa,32,F,A+,0.148,15.29094,74.11049,9751702814,seandavis@gmail.com
D_00366,Cathy,Bhagat,Bengaluru,34,F,AB+,0.092,12.9994,77.68768,9834301871,mstewart@hotmail.com
D_00367,Sherry,Singh,Goa,18,M,O+,0.094,15.31447,74.20408,6265650455,lewispamela@hotmail.com
D_00368,Victoria,Rao,Pune,40,F,O+,0.022,18.63832,73.82854,4266299123,carl96@gmail.com
D_00369,Adam,Parab,Goa,48,M,B+,0.127,15.42828,74.22919,6287923264,mary47@hotmail.com
D_00370,Jodi,Bhagat,Pune,29,F,O+,0.0,18.44316,73.85911,0024471462,hubbardtrevor@gmail.com
D_00371,Carol,Parab,Mumbai,32,M,O+,0.175,19.08586,72.92182,9796471589,thomassteven@hotmail.com
D_00372,Derek,Sharma,Goa,27,F,A+,0.0,15.29086,74.10925,0456504481,georgegary@yahoo.com
D_00373,Monique,Rao,Pune,18,F,O+,0.026,18.48606,73.80131,4518952028,kpeterson@gmail.com
D_00374,Jeffery,Singh,Goa,29,F,A+,0.06,15.22775,74.07045,3898881671,sbailey@yahoo.com
D_00375,Don,Parab,Nagpur,35,F,O+,0.127,21.12106,79.02803,9852401322,davidmiller@hotmail.com
D_00376,Kathryn,Naik,Mumbai,24,F,O+,0.1,19.10619,72.86326,1076031089,bradley40@gmail.com
D_00377,Kimberly,Patel,Nagpur,42,F,O+,0.011,21.12028,79.02452,9325012495,williamjones@hotmail.com
D_00378,Kathryn,Patel,Pune,18,M,O+,0.0,18.48847,73.80447,3428013875,whitemichael@yahoo.com
D_00379,Roger,Fernandes,Bengaluru,18,F,AB+,0.125,12.99297,77.6353,6151718275,murphydarrell@yahoo.com
D_00380,Stephen,Bhagat,Nagpur,24,F,O+,0.097,21.15739,79.03902,7386463175,sandersalexandra@hotmail.com
D_00381,Christopher,Patel,Mumbai,29,F,O-,0.011,18.90385,72.82017,6691215353,maryhardy@yahoo.com
D_00382,Kathy,Parab,Goa,44,M,O+,0.148,15.34025,74.11054,6579678427,ocrawford@gmail.com
D_00383,Anthony,Bhagat,Pune,39,M,O+,0.072,18.51251,73.85821,1702695249,msparks@yahoo.com
D_00384,Ebony,Sawant,Bengaluru,32,M,B+,0.023,13.00212,77.64553,8485880061,cramos@gmail.com
D_00385,Gregory,Parab,Bengaluru,30,M,O+,0.0,12.96894,77.57795,2762467197,kalvarez@hotmail.com
D_00386,Brian,Singh,Goa,40,M,AB+,0.104,15.14255,74.18261,7969545009,lisa90@hotmail.com
D_00387,Matthew,Fernandes,Goa,20,M,O+,0.156,15.2476,74.26602,6556503334,danny20@hotmail.com
D_00388,Mark,Naik,Goa,37,M,Bombay(Oh),1.0,15.27804,74.23867,6986407905,ashley71@hotmail.com
D_00389,Emily,Sharma,Pune,39,M,O+,0.0,18.50966,73.92156,7852945637,joseph49@yahoo.com
D_00390,Linda,Parab,Mumbai,22,M,B+,0.184,19.20285,72.94007,9195419876,william46@hotmail.com
D_00391,Amber,Bhagat,Pune,28,M,B+,0.119,18.43194,73.83951,6649878208,donnaholloway@yahoo.com
D_00392,Joseph,Singh,Pune,18,M,A+,0.091,18.52437,73.84379,9083572324,waltersmeghan@yahoo.com
D_00393,Madison,Sawant,Pune,41,M,O+,0.141,18.38572,73.79223,4936312303,chenderson@gmail.com
D_00394,Erik,Sawant,Nagpur,31,M,A+,0.003,21.29711,79.05123,0448207001,lesterrichard@yahoo.com
D_00395,Emily,Parab,Nagpur,27,F,A+,0.075,21.1895,79.08871,6231981898,carolmejia@yahoo.com
D_00396,Mark,Fernandes,Bengaluru,18,M,Bombay(Oh),0.952,12.88375,77.56566,3632123476,sferguson@gmail.com
D_00397,Leslie,Rao,Bengaluru,43,M,Bombay(Oh),0.918,13.02736,77.56789,7342575409,angela45@hotmail.com
D_00398,David,Singh,Mumbai,37,F,B+,0.0,18.95283,72.7588,7606441343,rmccormick@gmail.com
D_00399,Madeline,Rao,Mumbai,38,M,O+,0.065,19.2146,73.0562,7656124815,shawn00@hotmail.com
D_00400,Darlene,Rao,Nagpur,19,F,Bombay(Oh),0.877,21.06073,79.01833,2063459112,usparks@yahoo.com
D_00401,Timothy,Parab,Nagpur,21,F,O+,0.092,20.98746,79.14803,4295431652,andrewjohnson@hotmail.com
D_00402,Deborah,Parab,Mumbai,34,F,O+,0.135,19.05958,73.06443,1734206969,george91@gmail.com
D_00403,Jennifer,Singh,Goa,27,M,O+,0.055,15.20094,74.16374,7713334476,wandacampbell@hotmail.com
D_00404,Jaime,Sawant,Pune,34,F,AB+,0.148,18.39844,73.87597,6204439735,harrisonmonica@hotmail.com
D_00405,Raymond,Khan,Bengaluru,34,F,B-,0.0,12.99624,77.56327,6694118005,smithwilliam@yahoo.com
D_00406,Kevin,Rao,Bengaluru,31,F,AB+,0.03,12.96163,77.50079,5280924287,stewartalyssa@gmail.com
D_00407,Jorge,Parab,Mumbai,22,M,AB+,0.077,18.93416,72.97865,0274564494,leslievang@gmail.com
D_00408,Angela,Khan,Nagpur,59,M,AB+,0.0,21.16504,78.89462,0320320742,wwilliams@hotmail.com
D_00409,Ann,Khan,Pune,37,F,O+,0.042,18.51601,73.87954,7121513422,brandybonilla@hotmail.com
D_00410,Katie,Khan,Nagpur,30,M,O+,0.06,21.23906,79.07184,6137150416,eric17@hotmail.com
D_00411,Donna,Fernandes,Nagpur,31,F,O+,0.041,21.19827,79.10378,4905097592,lauren18@hotmail.com
D_00412,Patrick,Naik,Pune,27,M,O+,0.043,18.59656,73.94479,4236103266,travis64@hotmail.com
D_00413,Carrie,Rao,Mumbai,41,M,O+,0.066,19.02586,72.94669,1583776749,nshepherd@gmail.com
D_00414,Ryan,Parab,Mumbai,36,F,AB+,0.06,19.1172,72.93495,1085732788,zmiller@yahoo.com
D_00415,Kevin,Parab,Pune,35,M,A+,0.114,18.61551,73.91336,4386490810,dgutierrez@hotmail.com
D_00416,Jennifer,Sharma,Mumbai,18,F,A+,0.0,19.01038,72.87578,5491801722,tmcdowell@yahoo.com
D_00417,Brenda,Parab,Nagpur,18,F,A+,0.091,21.08241,79.06356,7945232194,smithdarryl@gmail.com
D_00418,Diana,Khan,Mumbai,30,F,A+,0.044,19.1924,72.87795,6974995641,danielsmith@gmail.com
D_00419,Michele,Singh,Pune,24,F,AB+,0.0,18.3918,73.79568,7236831472,martinelijah@hotmail.com
D_00420,Sean,Parab,Bengaluru,29,M,O+,0.112,12.95921,77.65066,7079334960,fpetty@hotmail.com
D_00421,Beth,Sawant,Nagpur,32,M,O+,0.074,21.19663,78.98906,0767899730,angela46@yahoo.com
D_00422,Daryl,Parab,Pune,32,F,O+,0.11,18.45203,73.8835,7602437573,sandra72@yahoo.com
D_00423,Jennifer,Parab,Pune,34,M,B+,0.035,18.66444,73.95582,6572934172,agarcia@yahoo.com
D_00424,Kevin,Khan,Bengaluru,34,M,O+,0.078,13.03907,77.63936,8005452280,williamsondavid@gmail.com
D_00425,Tom,Singh,Pune,31,M,O+,0.0,18.55179,73.81598,5084289107,colonbobby@gmail.com
D_00426,Gary,Sawant,Pune,25,F,B-,0.081,18.54722,73.7809,3524787125,scottperry@gmail.com
D_00427,John,Fernandes,Pune,40,M,O+,0.017,18.49417,73.86912,5482145653,devinpatterson@yahoo.com
D_00428,Rachael,Sawant,Goa,39,F,O+,0.066,15.27746,74.0618,0720811556,qmalone@hotmail.com
D_00429,Edward,Parab,Goa,40,M,O+,0.083,15.3203,74.13949,8466845504,ngriffin@hotmail.com
D_00430,Claudia,Parab,Bengaluru,47,M,O+,0.0,12.96636,77.75314,5634108562,christopherarnold@hotmail.com
D_00431,Matthew,Khan,Nagpur,32,F,O+,0.02,21.22303,79.18709,0089434681,david17@yahoo.com
D_00432,Ashley,Fernandes,Goa,27,F,O+,0.117,15.31556,74.10123,7539989354,pstone@gmail.com
D_00433,Mark,Naik,Pune,18,M,B+,0.0,18.52044,73.9048,5712661106,rmiller@hotmail.com
D_00434,Richard,Bhagat,Goa,44,M,Bombay(Oh),0.964,15.18693,74.01068,4976776228,tammypalmer@hotmail.com
D_00435,David,Singh,Mumbai,42,M,B+,0.036,19.12578,72.78659,7702851961,billy21@yahoo.com
D_00436,Kevin,Naik,Nagpur,24,F,O+,0.059,21.22348,79.21638,4470229604,jsmith@yahoo.com
D_00437,Carlos,Rao,Bengaluru,20,F,O+,0.112,12.90203,77.68463,6794975679,qgill@yahoo.com
D_00438,Edward,Khan,Pune,23,M,A+,0.0,18.53578,73.84484,1996636580,jasminearmstrong@hotmail.com
D_00439,Kyle,Sharma,Mumbai,39,F,A+,0.014,19.07927,72.79753,8139890983,barrettamanda@gmail.com
D_00440,Joshua,Khan,Mumbai,29,F,O+,0.0,18.95397,72.78699,3971895690,bwhite@hotmail.com
D_00441,Logan,Singh,Nagpur,31,F,Bombay(Oh),0.887,21.33881,79.15097,1118242241,brianwoodward@gmail.com
D_00442,Anthony,Bhagat,Goa,42,F,AB+,0.054,15.46073,74.14131,4615265461,trevorgoodwin@yahoo.com
D_00443,Stacy,Singh,Mumbai,38,M,A-,0.07,19.11108,72.87927,0578617063,sanchezangela@gmail.com
D_00444,Kevin,Patel,Pune,18,M,O+,0.043,18.59887,73.79732,7183258238,smithsteven@hotmail.com
D_00445,Keith,Sawant,Pune,33,F,AB+,0.072,18.53358,73.86077,0074946539,jocelynhart@yahoo.com
D_00446,Christopher,Fernandes,Mumbai,28,M,B+,0.101,18.89412,72.8028,2846398554,matthew79@yahoo.com
D_00447,Allen,Rao,Nagpur,30,M,A+,0.093,21.13754,78.95674,0970026876,staffordlisa@yahoo.com
D_00448,Emily,Sawant,Nagpur,29,M,B+,0.047,21.18877,79.09233,6956201753,changerin@hotmail.com
D_00449,Michael,Sharma,Bengaluru,44,F,O+,0.038,12.94158,77.56918,9433750479,rrodriguez@hotmail.com
D_00450,Vincent,Parab,Nagpur,19,M,O+,0.159,21.17186,79.05863,8399921921,nicoledaniel@yahoo.com
D_00451,James,Khan,Mumbai,29,F,O+,0.083,19.01113,72.77709,8948706056,hsimpson@gmail.com
D_00452,Nicole,Parab,Pune,21,F,Bombay(Oh),0.962,18.54681,73.90629,0468750635,tiffanycoleman@gmail.com
D_00453,Sally,Singh,Nagpur,52,F,A+,0.01,21.01719,79.10298,2541107609,wellssusan@gmail.com
D_00454,Lorraine,Naik,Mumbai,53,F,O+,0.0,19.14332,72.82829,1997179110,pattonbryan@yahoo.com
D_00455,Brian,Bhagat,Pune,27,M,Bombay(Oh),0.999,18.40648,73.83537,1108046619,chavezsteven@yahoo.com
D_00456,Nichole,Singh,Nagpur,27,F,O+,0.0,21.14964,79.11475,5078593110,rebeccamartinez@hotmail.com
D_00457,Jonathan,Parab,Nagpur,36,M,O-,0.061,21.16098,79.03524,7972320024,larry82@gmail.com
D_00458,Terrance,Patel,Nagpur,22,F,O+,0.072,21.13901,78.98873,4508920388,tiffanydavidson@gmail.com
D_00459,Kristen,Sharma,Mumbai,46,F,O+,0.058,18.99949,72.91549,3779599594,gibsonkristina@gmail.com
D_00460,Tyler,Naik,Pune,38,M,B+,0.0,18.56988,73.8401,3379337563,alejandro50@hotmail.com
D_00461,Darius,Fernandes,Goa,27,M,O+,0.123,15.36989,74.08783,7395003342,melanie32@gmail.com
D_00462,Andrew,Sharma,Mumbai,24,M,O+,0.077,19.07442,72.83877,1026153473,ejohns@gmail.com
D_00463,Drew,Fernandes,Pune,25,M,O+,0.146,18.57994,73.8422,3386559630,kristine53@gmail.com
D_00464,Crystal,Patel,Mumbai,33,M,O+,0.069,19.0958,72.88973,2897317912,victor72@yahoo.com
D_00465,Jennifer,Naik,Goa,18,M,O+,0.155,15.24453,74.18725,7749690333,kevinoneal@hotmail.com
D_00466,Eric,Singh,Goa,18,M,A+,0.062,15.24249,74.07618,4812147853,ronald76@yahoo.com
D_00467,Michael,Sawant,Nagpur,33,F,O+,0.089,21.11324,79.14311,5460273415,hartmansara@gmail.com
D_00468,David,Singh,Bengaluru,23,F,O+,0.078,13.01554,77.80534,0835354443,alan44@yahoo.com
D_00469,Krista,Singh,Bengaluru,30,F,O+,0.086,12.95647,77.66833,6907826333,dsharp@yahoo.com
D_00470,Latoya,Fernandes,Goa,26,F,Bombay(Oh),0.949,15.33202,74.01796,3663778052,porterdonna@yahoo.com
D_00471,Matthew,Parab,Nagpur,36,F,O+,0.08,20.93746,79.10412,6684590902,nbaird@yahoo.com
D_00472,Bryce,Naik,Pune,22,M,AB+,0.101,18.60336,73.91595,3715974121,mjohnson@gmail.com
D_00473,Rhonda,Fernandes,Bengaluru,26,M,A-,0.076,12.82931,77.62017,4334817058,hmyers@gmail.com
D_00474,Amanda,Naik,Nagpur,24,F,O+,0.029,21.20102,78.88353,1632346729,waynecohen@yahoo.com
D_00475,James,Bhagat,Mumbai,38,F,O+,0.113,19.13035,72.7858,7169385977,robertsnicole@yahoo.com
D_00476,Michael,Naik,Mumbai,40,M,B+,0.119,18.99102,72.78184,6926329676,chale@gmail.com
D_00477,Nicole,Singh,Bengaluru,26,F,O+,0.101,13.03427,77.57448,4841376815,robert24@gmail.com
D_00478,William,Rao,Bengaluru,50,M,B+,0.029,12.92373,77.61289,0176563600,ellen77@yahoo.com
D_00479,Carlos,Rao,Bengaluru,38,M,O+,0.0,13.00507,77.70673,7274220912,qjackson@gmail.com
D_00480,Erica,Fernandes,Bengaluru,32,F,O+,0.012,13.04923,77.65887,7523083708,awilliams@gmail.com
D_00481,Kelsey,Sharma,Goa,37,M,O+,0.084,15.34784,74.10934,3533106005,roblesmaria@gmail.com
D_00482,Jennifer,Rao,Mumbai,42,F,AB+,0.086,19.14129,72.87176,6815583938,jasonkelly@gmail.com
D_00483,Alexis,Parab,Bengaluru,26,M,O+,0.025,13.03872,77.54522,0637314950,katrina71@hotmail.com
D_00484,Amanda,Bhagat,Goa,38,F,O+,0.094,15.38396,74.199,4195625257,oreyes@hotmail.com
D_00485,Jesse,Rao,Bengaluru,38,M,O+,0.052,12.88426,77.56363,3091436391,jphillips@yahoo.com
D_00486,James,Fernandes,Pune,39,F,AB+,0.01,18.51558,73.89308,3975245086,matthew38@gmail.com
D_00487,Rebecca,Khan,Nagpur,32,F,O+,0.0,21.18585,79.09218,3968527017,shawnamartinez@gmail.com
D_00488,Brittany,Singh,Mumbai,34,F,O+,0.109,19.05696,72.89922,3816742336,justin73@yahoo.com
D_00489,Michelle,Parab,Pune,38,M,O+,0.04,18.48209,73.78768,1566277689,gillronald@gmail.com
D_00490,Katherine,Sharma,Nagpur,43,F,AB+,0.107,21.09385,79.14997,9828246747,ijones@hotmail.com
D_00491,Taylor,Naik,Bengaluru,18,M,O+,0.1,12.94206,77.60607,3008576665,ortizbenjamin@gmail.com
D_00492,Paul,Fernandes,Mumbai,44,M,O+,0.047,19.17598,72.75649,3645875066,dorseymichael@hotmail.com
D_00493,Erica,Fernandes,Pune,20,F,A+,0.142,18.47754,73.72011,4972439920,fmccarthy@hotmail.com
D_00494,Renee,Sawant,Bengaluru,45,M,O+,0.117,13.01488,77.58232,2644886946,lisa43@hotmail.com
D_00495,Raymond,Naik,Bengaluru,27,F,B-,0.093,12.94282,77.48852,0270116864,jacob23@yahoo.com
D_00496,Hunter,Fernandes,Goa,18,M,Bombay(Oh),1.0,15.25873,73.99052,7932302346,christophermiller@gmail.com
D_00497,Joshua,Khan,Bengaluru,40,F,O+,0.062,12.95317,77.52066,0937710040,alexasmith@hotmail.com
D_00498,Abigail,Bhagat,Pune,23,F,O+,0.047,18.43174,73.7238,7759655553,hestermorgan@gmail.com
D_00499,Aaron,Sawant,Goa,34,F,O+,0.093,15.22555,74.04368,2091843579,aaronlittle@yahoo.com
D_00500,Allen,Rao,Goa,33,M,O+,0.0,15.29263,74.13886,0573976915,mcarter@hotmail.com
D_00501,Douglas,Sawant,Goa,40,M,O-,0.033,15.19533,74.19038,2714872717,georgeraymond@hotmail.com
D_00502,Christopher,Naik,Mumbai,38,M,Bombay(Oh),0.903,18.95,72.95178,0256434712,monica99@gmail.com
D_00503,Dawn,Fernandes,Bengaluru,35,M,O+,0.0,13.01572,77.62185,6863341411,juliewilson@yahoo.com
D_00504,David,Singh,Nagpur,32,M,B+,0.0,21.07663,79.22383,6904098366,danielsmith@yahoo.com
D_00505,Leslie,Sawant,Goa,43,M,B+,0.073,15.34506,74.11902,3772942095,wendy97@hotmail.com
D_00506,Maria,Rao,Mumbai,35,F,O+,0.049,19.00685,72.86643,4605233027,kelleymatthew@hotmail.com
D_00507,Thomas,Fernandes,Goa,49,F,O+,0.159,15.26436,73.99547,6618443861,hornjenna@yahoo.com
D_00508,Diamond,Singh,Pune,35,F,A+,0.038,18.585,73.77884,7742333059,kshelton@gmail.com
D_00509,Cody,Patel,Bengaluru,22,M,A+,0.0,12.9089,77.53936,2018596263,sburns@hotmail.com
D_00510,Stephanie,Naik,Nagpur,48,M,A+,0.11,21.2822,79.06414,1764750111,andrewberry@hotmail.com
D_00511,Timothy,Fernandes,Bengaluru,32,F,B+,0.097,13.01157,77.63236,9267649215,bhess@yahoo.com
D_00512,Angela,Rao,Pune,33,F,A+,0.096,18.63376,73.91121,1898131292,david29@gmail.com
D_00513,Denise,Sharma,Bengaluru,42,F,B-,0.128,13.02627,77.57785,8401184582,brandon84@hotmail.com
D_00514,Amanda,Sawant,Goa,43,M,O+,0.122,15.36413,74.10243,9758598831,donaldchase@gmail.com
D_00515,Susan,Naik,Mumbai,25,F,O+,0.196,18.96891,72.93313,9542961844,qmiller@hotmail.com
D_00516,Ronald,Fernandes,Bengaluru,27,M,A+,0.0,13.01467,77.60934,8314359892,mgray@gmail.com
D_00517,Chris,Sharma,Mumbai,31,F,Bombay(Oh),0.896,19.07803,72.72413,8186151554,garciatiffany@gmail.com
D_00518,Nicholas,Parab,Goa,49,F,B-,0.039,15.31946,74.09391,1284971859,mosleygeorge@yahoo.com
D_00519,Henry,Rao,Bengaluru,39,M,AB+,0.027,12.94928,77.57222,7924082226,jasmine39@yahoo.com
D_00520,Jasmine,Khan,Mumbai,21,M,B+,0.004,19.02045,72.9041,7578446834,megan11@hotmail.com
D_00521,John,Rao,Pune,18,M,AB+,0.0,18.75633,73.95627,2901487068,sullivanchristina@hotmail.com
D_00522,Adrian,Khan,Mumbai,20,F,O+,0.0,19.02255,72.95814,8538909728,mary85@gmail.com
D_00523,Roberto,Sharma,Pune,33,M,B+,0.159,18.50202,73.78859,2515381447,rojasashley@gmail.com
D_00524,Sandra,Khan,Mumbai,33,F,O-,0.048,19.10941,72.94546,7970509754,pamela26@yahoo.com
D_00525,Alan,Patel,Mumbai,36,F,B+,0.0,19.24052,72.78723,7318826170,tfoster@yahoo.com
D_00526,Ross,Parab,Pune,33,M,B+,0.147,18.43744,73.91621,8417722560,justinanderson@yahoo.com
D_00527,Julie,Sawant,Mumbai,29,F,O+,0.095,19.01923,72.77702,2374167872,ganderson@gmail.com
D_00528,David,Rao,Goa,30,F,B+,0.01,15.18589,74.17199,8030569067,hodgesjohn@gmail.com
D_00529,Jessica,Rao,Bengaluru,18,M,O+,0.0,13.05331,77.76168,3414363718,jeromeanderson@gmail.com
D_00530,Joshua,Parab,Mumbai,32,F,O+,0.025,19.16287,72.96212,2609310668,ronald08@yahoo.com
D_00531,Dawn,Patel,Goa,21,F,O+,0.064,15.32553,74.19794,1454563502,jason74@hotmail.com
D_00532,Craig,Parab,Pune,36,M,B+,0.02,18.49354,73.79354,4755411082,john43@hotmail.com
D_00533,Patrick,Naik,Mumbai,32,M,O+,0.018,19.14468,72.85893,2910933711,jessica38@hotmail.com
D_00534,Eric,Patel,Nagpur,52,F,O+,0.058,21.14214,79.027,3684855716,jacksonjoshua@gmail.com
D_00535,Keith,Parab,Mumbai,35,F,Bombay(Oh),0.999,19.09845,73.01839,3678812786,jamie02@hotmail.com
D_00536,Jeffery,Singh,Bengaluru,29,M,B+,0.102,12.80473,77.57965,8788443448,fergusonkelly@hotmail.com
D_00537,Eddie,Sharma,Bengaluru,44,M,Bombay(Oh),0.877,12.9076,77.58952,2403381059,jennifer69@yahoo.com
D_00538,Mark,Sawant,Pune,36,F,A+,0.062,18.49834,73.93196,0534240891,lisawalker@yahoo.com
D_00539,James,Bhagat,Bengaluru,44,F,O+,0.035,12.92306,77.6115,2736527172,ashleyharding@gmail.com
D_00540,Deborah,Patel,Bengaluru,19,F,A+,0.0,12.88537,77.5395,4226931216,ramseyderrick@gmail.com
D_00541,Carrie,Sawant,Mumbai,40,F,O-,0.154,19.02762,72.70125,6010023142,danielsloretta@hotmail.com
D_00542,Christopher,Parab,Bengaluru,34,M,A+,0.136,12.95488,77.76341,7972457230,smithbradley@hotmail.com
D_00543,Kenneth,Khan,Nagpur,39,M,AB+,0.049,21.18238,79.20467,2030366254,hjackson@gmail.com
D_00544,Cristian,Khan,Pune,42,F,O-,0.086,18.42886,73.86128,5195151092,carol62@hotmail.com
D_00545,Gloria,Bhagat,Pune,34,M,Bombay(Oh),0.973,18.48496,73.81834,5147541022,ygriffith@yahoo.com
D_00546,Lisa,Fernandes,Goa,39,M,O+,0.106,15.34261,74.23934,9642152265,asteele@hotmail.com
D_00547,Laura,Singh,Pune,50,M,B-,0.0,18.4378,73.88853,2366878878,carpenterrobert@hotmail.com
D_00548,Kimberly,Bhagat,Pune,24,F,O+,0.046,18.46998,73.77606,1350305872,melinda24@yahoo.com
D_00549,Douglas,Sawant,Nagpur,22,F,AB+,0.156,21.14705,79.16038,3330212606,woodsbrittney@gmail.com
D_00550,Anthony,Sawant,Goa,41,M,B-,0.035,15.38797,74.17174,2131096227,vjenkins@yahoo.com
D_00551,Kimberly,Rao,Mumbai,20,F,B+,0.015,19.08975,72.92196,4120092820,samantha84@hotmail.com
D_00552,Jeremy,Patel,Mumbai,18,M,O+,0.091,18.99493,72.93379,4186236903,velasqueztaylor@yahoo.com
D_00553,Denise,Bhagat,Pune,25,F,A+,0.109,18.56458,73.90675,6205634111,allenfrancisco@gmail.com
D_00554,Cameron,Sharma,Nagpur,27,F,B+,0.027,21.06985,79.20298,4383034199,williamschristopher@yahoo.com
D_00555,Alan,Naik,Mumbai,32,M,O+,0.077,19.10397,72.75252,4683565215,andrewflynn@yahoo.com
D_00556,Brenda,Naik,Pune,27,M,O+,0.112,18.57406,73.83332,4227113322,seth25@yahoo.com
D_00557,Michael,Fernandes,Pune,21,M,A+,0.068,18.58094,73.9057,0633991297,amy17@gmail.com
D_00558,Shawn,Fernandes,Nagpur,18,F,O+,0.112,21.24298,79.04039,4214955112,kathryn72@gmail.com
D_00559,Teresa,Rao,Nagpur,35,F,O+,0.065,21.19557,79.19451,0546692758,flemingwilliam@yahoo.com
D_00560,Natalie,Sawant,Nagpur,48,F,Bombay(Oh),1.0,21.22314,79.11465,9038021462,paulford@gmail.com
D_00561,Michael,Fernandes,Bengaluru,23,F,B+,0.157,12.94349,77.71967,8711216636,wendy73@hotmail.com
D_00562,Judith,Parab,Nagpur,29,M,O+,0.108,21.20209,79.10093,4708272359,mayermichael@yahoo.com
D_00563,Tiffany,Khan,Bengaluru,26,M,O+,0.036,13.02164,77.66542,0306442121,morgan76@hotmail.com
D_00564,Jason,Sharma,Pune,37,F,B+,0.002,18.61556,73.95039,2016542356,tammykim@hotmail.com
D_00565,Ashley,Parab,Mumbai,42,F,B-,0.157,19.23301,72.878,8931992550,hlin@hotmail.com
D_00566,Richard,Naik,Pune,19,F,O+,0.099,18.55273,73.77494,7279103368,michaelfarley@hotmail.com
D_00567,Barbara,Singh,Nagpur,28,M,A+,0.047,21.30476,79.04572,5504481776,wmills@yahoo.com
D_00568,Daniel,Rao,Pune,40,F,AB+,0.035,18.56225,73.96317,7652892866,cowanlinda@gmail.com
D_00569,Christopher,Bhagat,Pune,18,F,B+,0.065,18.52388,73.90135,9617981789,jeffreygibson@yahoo.com
D_00570,Danny,Naik,Mumbai,33,M,O+,0.128,18.94362,72.9208,1576605384,anunez@yahoo.com
D_00571,Antonio,Khan,Pune,31,M,A+,0.0,18.48314,73.84463,2589552963,zpoole@hotmail.com
D_00572,Roy,Bhagat,Goa,35,F,B+,0.13,15.37383,74.1449,2658263128,mary25@gmail.com
D_00573,Christopher,Bhagat,Goa,40,M,Bombay(Oh),0.948,15.34966,74.05965,6092098196,jacob34@gmail.com
D_00574,Amanda,Patel,Pune,43,F,A+,0.004,18.54349,73.86268,6404120911,thomasjose@gmail.com
D_00575,Christopher,Khan,Bengaluru,29,M,A+,0.0,12.93029,77.57888,5361706171,cynthia72@gmail.com
D_00576,Kent,Singh,Goa,18,F,A+,0.048,15.24653,74.06761,9901557998,sara39@gmail.com
D_00577,Amanda,Fernandes,Pune,31,F,B-,0.084,18.49991,73.83738,3513052312,stephaniebailey@hotmail.com
D_00578,Denise,Parab,Bengaluru,21,M,A-,0.042,12.92258,77.67875,7686342346,gabriel37@yahoo.com
D_00579,Nicole,Sharma,Pune,27,F,B+,0.039,18.4588,73.75301,9459196639,cjackson@hotmail.com
D_00580,Johnny,Fernandes,Pune,40,M,B+,0.041,18.49005,73.88327,4985601256,lewisnathan@gmail.com
D_00581,Kimberly,Parab,Mumbai,37,M,AB+,0.001,19.07348,72.80983,0505379538,alisongarcia@yahoo.com
D_00582,Jennifer,Rao,Bengaluru,20,F,O+,0.031,12.99051,77.50956,9665533077,martinezgeorge@yahoo.com
D_00583,Brittany,Sharma,Mumbai,31,F,O+,0.0,19.06836,72.7356,9040907426,rogersallen@yahoo.com
D_00584,Cody,Naik,Nagpur,37,M,O+,0.142,21.05093,78.90244,4455618579,psnyder@gmail.com
D_00585,Megan,Singh,Pune,35,F,AB+,0.0,18.55897,73.8862,0300215632,villamiranda@yahoo.com
D_00586,Nicole,Patel,Mumbai,49,M,O+,0.036,18.98125,72.83775,1041459642,martinezmichelle@hotmail.com
D_00587,Pamela,Parab,Nagpur,41,M,O+,0.042,21.24555,79.08324,7188397745,katie15@hotmail.com
D_00588,Mary,Rao,Mumbai,27,F,B+,0.077,19.03391,72.72056,3117030376,jason98@hotmail.com
D_00589,Michele,Fernandes,Mumbai,54,F,B+,0.082,19.22833,73.00778,7281235679,caseyhenderson@hotmail.com
D_00590,Kurt,Naik,Goa,23,M,O+,0.13,15.13157,74.1931,2711307240,joseph81@yahoo.com
D_00591,Ryan,Fernandes,Bengaluru,25,M,AB+,0.053,12.92449,77.52762,6868507451,kellypowell@hotmail.com
D_00592,Joshua,Parab,Goa,32,M,B+,0.112,15.32973,74.10873,8610313100,pateljoshua@hotmail.com
D_00593,Holly,Patel,Nagpur,24,M,O+,0.018,21.24324,79.04714,6613473235,daviswesley@hotmail.com
D_00594,Christy,Fernandes,Bengaluru,37,F,B+,0.011,13.00372,77.63207,3251225720,thompsonjoseph@gmail.com
D_00595,George,Rao,Bengaluru,23,M,A+,0.0,13.00429,77.56998,9579073710,aliciajackson@gmail.com
D_00596,Kimberly,Singh,Mumbai,45,M,B+,0.074,19.09969,72.90772,4577584745,jennifer89@yahoo.com
D_00597,Daniel,Naik,Nagpur,31,F,Bombay(Oh),0.905,20.97884,79.04143,2632570396,samanthagray@gmail.com
D_00598,Tammy,Sharma,Nagpur,31,F,O+,0.054,21.0933,79.02957,8245569644,mary16@yahoo.com
D_00599,Ashley,Singh,Mumbai,18,M,O+,0.035,19.02745,72.91431,4107272849,zroberts@yahoo.com
D_00600,Alexis,Fernandes,Mumbai,26,F,O+,0.054,19.16973,72.84847,3491074065,michaelcampbell@hotmail.com
D_00601,Elizabeth,Rao,Bengaluru,37,F,A+,0.206,13.03306,77.61183,1423691430,ghenderson@yahoo.com
D_00602,Samantha,Sawant,Bengaluru,43,M,B+,0.049,12.97611,77.55363,2965923426,christopher97@hotmail.com
D_00603,Isaac,Sawant,Nagpur,26,M,O+,0.096,21.14216,79.05426,1287585756,jjohnson@gmail.com
D_00604,Susan,Parab,Bengaluru,44,M,O+,0.036,12.90643,77.5509,1294398529,camposphilip@yahoo.com
D_00605,Elizabeth,Naik,Goa,24,M,O-,0.148,15.25647,74.15268,8701041591,michelle19@hotmail.com
D_00606,William,Fernandes,Goa,25,F,A+,0.102,15.35873,74.13311,3828723244,dannysmith@hotmail.com
D_00607,Nichole,Sharma,Pune,24,M,O+,0.067,18.52825,73.96037,3317087601,loriskinner@hotmail.com
D_00608,Jorge,Naik,Goa,38,F,O-,0.017,15.33973,74.13967,9162022328,qroberts@gmail.com
D_00609,Susan,Sawant,Pune,23,M,O+,0.128,18.58993,73.82026,5466176620,tsmith@gmail.com
D_00610,Deanna,Sharma,Goa,21,M,A+,0.0,15.3786,74.20707,0527740258,lpalmer@hotmail.com
D_00611,Edward,Sawant,Bengaluru,41,F,Bombay(Oh),0.927,12.84044,77.5632,7244617679,david59@hotmail.com
D_00612,Michael,Singh,Mumbai,21,M,Bombay(Oh),0.965,19.03853,72.78532,1002311775,jessicacruz@yahoo.com
D_00613,Sandra,Parab,Mumbai,30,F,O-,0.008,19.08282,72.63841,9410175902,oanderson@hotmail.com
D_00614,Angela,Patel,Bengaluru,40,F,AB+,0.018,13.03758,77.65988,4774332683,harrislisa@gmail.com
D_00615,Michael,Singh,Mumbai,41,F,Bombay(Oh),0.918,19.00009,73.01749,9815287339,christine82@gmail.com
D_00616,Scott,Sharma,Pune,20,F,B+,0.076,18.49879,73.90421,1912841173,andrew44@yahoo.com
D_00617,Jacqueline,Rao,Goa,44,F,A+,0.027,15.25698,74.03948,2418938984,aguilarsharon@yahoo.com
D_00618,Denise,Naik,Nagpur,31,M,O+,0.0,21.16415,79.22521,5643502385,shafferanne@hotmail.com
D_00619,Jacqueline,Bhagat,Goa,41,F,O+,0.095,15.18983,74.28298,5169918724,promero@yahoo.com
D_00620,Ryan,Khan,Nagpur,51,F,Bombay(Oh),0.94,21.21397,79.18832,3000389608,bdominguez@hotmail.com
D_00621,Ronald,Patel,Pune,30,M,O+,0.015,18.38801,73.7799,1719553560,perezjulie@hotmail.com
D_00622,Ashley,Fernandes,Pune,33,F,O-,0.026,18.43815,73.84893,3010272405,david67@hotmail.com
D_00623,David,Khan,Goa,22,F,B+,0.064,15.30506,74.10702,1483753745,luis88@gmail.com
D_00624,Brian,Sharma,Bengaluru,31,M,O+,0.033,12.83205,77.64118,9741328348,barryyoung@yahoo.com
D_00625,Debra,Fernandes,Goa,37,F,B+,0.023,15.26621,74.27502,1070449641,ysimpson@yahoo.com
D_00626,Scott,Parab,Pune,36,F,O+,0.082,18.37116,73.93899,3626804085,lisa93@gmail.com
D_00627,Matthew,Patel,Goa,26,M,B+,0.112,15.19633,74.01223,6018648769,susanmcdonald@gmail.com
D_00628,David,Bhagat,Pune,44,F,B+,0.057,18.51494,73.78859,4413845960,donna90@gmail.com
D_00629,Kurt,Singh,Nagpur,27,M,O+,0.088,21.24182,79.05115,4277070705,fbrown@yahoo.com
D_00630,Penny,Sawant,Pune,35,F,A+,0.158,18.55326,73.84176,1724447232,dannyjohnson@hotmail.com
D_00631,William,Patel,Goa,36,F,Bombay(Oh),0.881,15.10023,74.07134,9508304405,michaeljones@yahoo.com
D_00632,Daniel,Sharma,Nagpur,30,F,A+,0.0,21.28368,79.12813,3359561642,matthew65@yahoo.com
D_00633,Sherri,Naik,Nagpur,26,M,O+,0.091,21.19462,79.10076,9025042901,shelby69@gmail.com
D_00634,Diane,Parab,Nagpur,36,F,O+,0.081,20.97098,79.17971,6113989868,hhopkins@yahoo.com
D_00635,Logan,Patel,Goa,29,F,O+,0.021,15.18957,74.06724,9435353751,christopher88@gmail.com
D_00636,Robin,Bhagat,Mumbai,30,F,B+,0.056,19.16859,72.98063,9376392836,laura55@gmail.com
D_00637,Christopher,Rao,Bengaluru,31,F,B+,0.0,12.997,77.56797,8297327021,inewton@gmail.com
D_00638,Mary,Naik,Bengaluru,32,M,O-,0.0,12.98385,77.67605,2128866526,rogersmallory@yahoo.com
D_00639,Brittany,Parab,Nagpur,19,M,O-,0.165,21.16382,79.14362,0157676472,hernandezalan@hotmail.com
D_00640,Mitchell,Naik,Pune,48,F,AB+,0.035,18.67959,73.88478,6572894134,ymitchell@yahoo.com
D_00641,Katherine,Fernandes,Mumbai,44,F,O+,0.097,19.09472,72.85782,0368499515,joshua73@gmail.com
D_00642,Keith,Bhagat,Bengaluru,38,M,O+,0.036,13.03018,77.57753,9134213882,adamwall@gmail.com
D_00643,Mike,Fernandes,Bengaluru,18,F,A+,0.118,12.81551,77.60609,9678274117,linvictoria@hotmail.com
D_00644,Elizabeth,Parab,Nagpur,45,F,AB+,0.001,21.26641,79.03283,1315285478,tgarcia@hotmail.com
D_00645,Lonnie,Sharma,Pune,24,M,Bombay(Oh),0.963,18.51004,73.90309,0329633472,david18@hotmail.com
D_00646,Kara,Sawant,Mumbai,44,F,A-,0.144,19.08187,72.85079,6178932064,danawashington@hotmail.com
D_00647,Stephanie,Fernandes,Pune,36,F,O+,0.0,18.41695,73.90249,3477695874,robert75@gmail.com
D_00648,Elaine,Sawant,Goa,46,F,Bombay(Oh),0.956,15.27307,74.09692,2751562779,joseph36@gmail.com
D_00649,Anna,Sharma,Mumbai,42,M,B+,0.123,19.06046,72.81724,4566766404,parkerrobert@hotmail.com
D_00650,Nancy,Bhagat,Goa,26,F,A+,0.105,15.26941,74.08342,1995298006,penaapril@yahoo.com
D_00651,Amanda,Rao,Bengaluru,32,F,A+,0.0,12.81885,77.70006,8634255638,fischeralisha@hotmail.com
D_00652,Raymond,Sawant,Bengaluru,32,M,O+,0.035,12.91747,77.67497,0244033041,michelle11@hotmail.com
D_00653,Jennifer,Fernandes,Bengaluru,41,F,B-,0.009,12.97491,77.63004,0089219639,turnerstephen@gmail.com
D_00654,Joseph,Sawant,Nagpur,25,F,O+,0.083,21.12646,79.15061,6461368474,fsmith@hotmail.com
D_00655,Phillip,Singh,Pune,24,F,AB+,0.0,18.55498,73.8943,8173906375,martin11@hotmail.com
D_00656,Gary,Singh,Pune,38,F,A+,0.0,18.36156,73.8079,9312697893,vcollins@gmail.com
D_00657,Benjamin,Bhagat,Pune,21,F,O+,0.0,18.28784,73.82671,0438787535,morseronald@gmail.com
D_00658,Nicholas,Parab,Nagpur,38,F,B+,0.096,21.16597,78.99331,2812371067,kaitlynpayne@yahoo.com
D_00659,Albert,Bhagat,Bengaluru,20,F,O+,0.0,12.93487,77.53903,6448595922,april47@yahoo.com
D_00660,Jason,Naik,Bengaluru,37,M,B+,0.003,13.09702,77.52584,2287056227,jamesdavis@yahoo.com
D_00661,Mark,Bhagat,Bengaluru,18,F,O+,0.055,12.89142,77.53441,9792158350,tsilva@yahoo.com
D_00662,Claudia,Sawant,Bengaluru,28,F,B+,0.139,13.01292,77.67244,4883192134,martinezalexa@hotmail.com
D_00663,Katie,Sawant,Goa,20,M,A+,0.155,15.23688,74.23045,9994973203,douglasalvarez@gmail.com
D_00664,Marcus,Singh,Mumbai,42,M,O+,0.051,19.12442,72.96693,2876754813,wmccarthy@yahoo.com
D_00665,Mary,Bhagat,Nagpur,18,F,O+,0.0,21.32833,79.03879,8193242687,lpearson@gmail.com
D_00666,Michelle,Khan,Goa,41,F,O+,0.067,15.39087,74.14078,5639836520,adamcollins@gmail.com
D_00667,Rhonda,Patel,Nagpur,24,F,AB+,0.072,21.06961,79.03404,8094047604,roysara@hotmail.com
D_00668,Crystal,Bhagat,Goa,41,M,O+,0.174,15.26305,74.19558,2781050922,browndana@gmail.com
D_00669,Leon,Sharma,Pune,18,F,AB+,0.004,18.57925,73.99924,3905529580,leekathleen@gmail.com
D_00670,Jessica,Sharma,Nagpur,38,F,O-,0.0,21.20411,79.00522,2704938620,david79@hotmail.com
D_00671,Christopher,Sawant,Nagpur,23,F,O+,0.142,21.1685,79.00917,1112125902,umiller@gmail.com
D_00672,Kyle,Sharma,Pune,28,F,A+,0.029,18.50368,73.89938,2406424295,nicole24@yahoo.com
D_00673,Heidi,Singh,Nagpur,19,M,O+,0.039,21.06013,79.24111,1759558720,victoriahamilton@hotmail.com
D_00674,Lisa,Patel,Pune,48,F,O+,0.108,18.53793,73.86287,3588418343,holmescrystal@yahoo.com
D_00675,Donald,Patel,Pune,30,F,B+,0.049,18.38691,73.9414,5969051502,deborah12@yahoo.com
D_00676,Kevin,Patel,Nagpur,51,F,Bombay(Oh),0.912,21.06599,79.17113,8207979966,carolyn76@yahoo.com
D_00677,Billy,Rao,Pune,35,F,O+,0.017,18.57149,73.94135,8166496902,stephaniebradley@gmail.com
D_00678,David,Naik,Mumbai,44,F,A+,0.177,19.12821,72.78669,0142576270,kyle23@gmail.com
D_00679,Samuel,Khan,Pune,38,M,O+,0.107,18.44803,73.95052,2850725178,tguerra@gmail.com
D_00680,Kathryn,Naik,Mumbai,47,F,AB+,0.057,19.01518,72.90067,6252654696,lsantiago@gmail.com
D_00681,Jeffrey,Parab,Pune,43,F,Bombay(Oh),0.957,18.4471,73.96514,3555809961,bradleyturner@gmail.com
D_00682,Matthew,Naik,Nagpur,32,M,O+,0.018,21.19447,79.30948,6244670462,marshallchristopher@hotmail.com
D_00683,Jessica,Patel,Bengaluru,28,F,O+,0.019,12.84668,77.71487,0252986707,ronald19@yahoo.com
D_00684,Wayne,Sharma,Pune,42,M,Bombay(Oh),0.905,18.51788,73.87868,5851268612,james97@yahoo.com
D_00685,Brandon,Parab,Bengaluru,19,M,O+,0.026,13.07376,77.62164,0177509546,guy56@gmail.com
D_00686,Sean,Patel,Mumbai,24,M,O+,0.04,19.17248,72.96905,0915086321,cynthiajordan@yahoo.com
D_00687,Michael,Patel,Mumbai,43,M,O-,0.093,19.09333,72.79564,9389701550,uhunt@gmail.com
D_00688,Matthew,Khan,Pune,39,F,B+,0.082,18.52039,73.94337,6602416139,heatherwilliams@hotmail.com
D_00689,Thomas,Parab,Goa,28,M,A-,0.131,15.46618,74.04282,4248096244,caseydiane@yahoo.com
D_00690,Joseph,Sharma,Goa,23,F,A+,0.064,15.50367,74.07262,1330531949,amber78@gmail.com
D_00691,Matthew,Rao,Nagpur,18,M,O+,0.043,21.16149,79.01587,5727738264,welchanna@yahoo.com
D_00692,Christopher,Naik,Pune,23,F,O+,0.026,18.67807,73.85514,4457702992,wperry@gmail.com
D_00693,Karen,Bhagat,Mumbai,45,M,O+,0.023,19.20319,72.92363,8736826911,duncangregory@gmail.com
D_00694,Katie,Sharma,Mumbai,18,M,Bombay(Oh),0.99,19.1239,72.80408,8653694551,zperez@yahoo.com
D_00695,Katherine,Khan,Goa,22,M,O-,0.141,15.21719,74.2224,7226408572,amccann@gmail.com
D_00696,Dana,Khan,Nagpur,34,M,Bombay(Oh),0.851,20.9653,78.99392,2998199605,xcohen@gmail.com
D_00697,Julia,Naik,Mumbai,32,M,B+,0.0,19.0285,72.86445,8832753273,klinejamie@yahoo.com
D_00698,Stephen,Naik,Bengaluru,22,M,AB-,0.068,12.8064,77.53972,3278195237,ecamacho@yahoo.com
D_00699,Chad,Fernandes,Pune,24,F,O+,0.178,18.37689,73.74826,4819807704,gmoran@hotmail.com
D_00700,Debra,Sharma,Bengaluru,56,F,O+,0.0,12.9854,77.63547,1124912565,josephrivera@hotmail.com
D_00701,Charles,Sawant,Bengaluru,29,F,B+,0.032,12.83699,77.51268,3454757494,aimeejohnson@yahoo.com
D_00702,Anna,Naik,Goa,32,M,O+,0.056,15.23207,74.17812,4294774222,dana03@hotmail.com
D_00703,Kevin,Fernandes,Goa,43,F,O+,0.062,15.31631,74.20616,4588679252,nicholas72@hotmail.com
D_00704,Timothy,Naik,Goa,29,M,O+,0.15,15.30921,74.06066,6015343324,victor90@hotmail.com
D_00705,Megan,Fernandes,Pune,51,M,A+,0.0,18.51448,73.85065,3506158148,griffinalexandra@gmail.com
D_00706,Jonathan,Sawant,Bengaluru,31,F,O+,0.018,13.0678,77.61997,3372094841,bruce33@hotmail.com
D_00707,Kathleen,Khan,Bengaluru,33,F,A-,0.005,13.01091,77.64018,7180513717,danielsjason@yahoo.com
D_00708,Kevin,Parab,Nagpur,30,M,O+,0.035,21.19057,79.02312,9617399704,vwelch@hotmail.com
D_00709,Timothy,Sawant,Goa,29,F,AB+,0.212,15.35387,74.13409,4483548847,floresterri@yahoo.com
D_00710,Tyler,Fernandes,Goa,30,M,O+,0.037,15.25211,74.19154,1641758231,luke87@gmail.com
D_00711,Gail,Naik,Nagpur,40,M,O+,0.07,21.10179,79.07644,9252362292,rchan@gmail.com
D_00712,Sarah,Rao,Pune,35,F,O+,0.07,18.49693,73.74075,4524555746,gillrichard@yahoo.com
D_00713,Michael,Naik,Bengaluru,36,M,AB+,0.115,12.99181,77.70536,7403344505,laurenwilliamson@yahoo.com
D_00714,Melissa,Naik,Pune,32,M,O+,0.089,18.39867,73.99644,1325797067,dbrown@hotmail.com
D_00715,Matthew,Bhagat,Mumbai,19,F,A+,0.125,19.1219,72.7756,7417215622,annagonzales@yahoo.com
D_00716,Ashley,Naik,Goa,18,F,O-,0.117,15.41133,74.16834,8840215573,stevencook@hotmail.com
D_00717,Teresa,Sharma,Pune,28,M,B+,0.009,18.51148,73.7923,4902166670,allen60@hotmail.com
D_00718,Morgan,Naik,Pune,34,M,O+,0.0,18.47734,73.84583,8749511918,berrytaylor@hotmail.com
D_00719,Victoria,Patel,Goa,32,F,A+,0.0,15.3864,74.0939,6477251295,moraleskelly@hotmail.com
D_00720,Maria,Sawant,Nagpur,42,F,O+,0.069,21.15592,79.02944,0356243958,patricia92@gmail.com
D_00721,Kendra,Khan,Bengaluru,27,F,Bombay(Oh),0.927,12.98562,77.48766,4210890285,dominiqueharris@gmail.com
D_00722,Roger,Sharma,Goa,18,M,O+,0.066,15.26026,74.18968,3350271607,mgonzales@gmail.com
D_00723,Kelli,Singh,Mumbai,43,F,O+,0.109,19.15423,72.70925,1289812317,flee@hotmail.com
D_00724,Michael,Sharma,Pune,33,M,O-,0.035,18.30913,73.83082,8170066615,pbautista@yahoo.com
D_00725,Jerome,Singh,Mumbai,28,M,B+,0.049,19.00203,72.74989,6704502329,donaldharrison@gmail.com
D_00726,Bruce,Sharma,Bengaluru,18,M,Bombay(Oh),1.0,13.02126,77.67782,4596262282,anthonyharris@yahoo.com
D_00727,Colleen,Singh,Bengaluru,43,M,Bombay(Oh),0.869,12.95695,77.56607,9500507026,ericsmith@gmail.com
D_00728,Christopher,Sawant,Pune,27,F,O+,0.11,18.56062,73.82884,1776872904,marcusfernandez@hotmail.com
D_00729,Elizabeth,Parab,Goa,37,F,O+,0.063,15.32514,74.11912,7793238223,olivia13@gmail.com
D_00730,John,Parab,Bengaluru,44,F,AB+,0.074,12.92728,77.72253,5798894256,adkinslauren@hotmail.com
D_00731,Brandon,Bhagat,Nagpur,44,M,O+,0.0,21.08216,79.12215,2020326509,courtneymontoya@hotmail.com
D_00732,Richard,Sharma,Nagpur,35,F,O+,0.0,21.15838,79.0887,7948714855,dingram@hotmail.com
D_00733,Colin,Singh,Mumbai,30,F,O+,0.143,19.02946,72.78379,8415608213,david54@yahoo.com
D_00734,Ryan,Naik,Mumbai,20,F,O+,0.123,19.16742,72.7391,8268323035,mcbridemichael@gmail.com
D_00735,Heather,Naik,Mumbai,38,M,A+,0.049,19.24367,73.00526,5212932896,hphillips@yahoo.com
D_00736,Patricia,Singh,Mumbai,18,M,O+,0.082,19.17237,72.82777,5240148439,etaylor@gmail.com
D_00737,Kathy,Khan,Pune,38,M,O+,0.083,18.63052,73.88175,6266933513,barberbrenda@hotmail.com
D_00738,Edwin,Sharma,Mumbai,50,M,O+,0.0,19.04415,72.82875,2450184819,lynn89@yahoo.com
D_00739,Eric,Rao,Mumbai,38,F,B+,0.046,18.92879,72.87512,4064176927,davisjessica@hotmail.com
D_00740,Michelle,Khan,Goa,40,M,O+,0.146,15.228,74.11905,7660144485,smithjennifer@yahoo.com
D_00741,John,Khan,Pune,34,F,Bombay(Oh),0.954,18.59707,73.86083,3964178996,guzmanbrittany@hotmail.com
D_00742,Stephanie,Rao,Nagpur,47,F,Bombay(Oh),0.878,21.24605,79.11953,1359966057,bentleylisa@hotmail.com
D_00743,Julie,Parab,Bengaluru,23,M,B+,0.048,12.87,77.61756,0392051460,michael34@yahoo.com
D_00744,Kristen,Fernandes,Mumbai,18,M,O+,0.203,19.1178,72.73092,7423885652,christina35@yahoo.com
D_00745,Craig,Sharma,Nagpur,25,M,O+,0.0,21.1515,78.98472,6597263475,susanmorris@gmail.com
D_00746,James,Patel,Mumbai,30,M,O+,0.09,19.18295,72.97231,8848826913,jphelps@hotmail.com
D_00747,Matthew,Naik,Nagpur,22,F,AB+,0.13,21.24654,79.17992,6261499153,elizabethhill@yahoo.com
D_00748,Jeffrey,Sharma,Nagpur,27,M,AB+,0.012,21.12367,79.12427,3373204309,robertabbott@hotmail.com
D_00749,Reginald,Patel,Nagpur,39,F,AB+,0.0,21.30978,79.08825,4546553585,laurariley@gmail.com
D_00750,Tina,Sawant,Pune,37,M,O+,0.069,18.45586,73.72129,8519358374,bcrawford@gmail.com
D_00751,Stephanie,Parab,Mumbai,22,F,O-,0.096,19.13143,72.93647,0878057215,stacey09@yahoo.com
D_00752,Ryan,Singh,Mumbai,32,M,O+,0.0,19.11849,73.0075,6374845398,michelle90@hotmail.com
D_00753,Karen,Patel,Mumbai,23,M,O+,0.098,19.22782,72.80187,1918623392,riveraclinton@yahoo.com
D_00754,Audrey,Singh,Mumbai,33,F,O+,0.044,19.00934,72.82664,6672521452,lopezrichard@gmail.com
D_00755,Michael,Singh,Mumbai,28,M,Bombay(Oh),0.969,19.10972,72.89905,5718409080,stuartallison@gmail.com
D_00756,Mark,Bhagat,Nagpur,31,F,A+,0.024,21.02514,78.99564,0995123972,wigginsrita@hotmail.com
D_00757,Neil,Patel,Bengaluru,34,M,O+,0.021,12.90672,77.50548,7282709081,felicia98@gmail.com
D_00758,Rachel,Bhagat,Goa,35,F,O-,0.097,15.2541,74.15786,3929578671,michaelallen@yahoo.com
D_00759,Jacob,Patel,Bengaluru,33,F,A+,0.121,12.97217,77.42768,0507918158,psherman@gmail.com
D_00760,Justin,Singh,Bengaluru,30,F,O+,0.027,13.05079,77.54538,7346666170,tlynch@yahoo.com
D_00761,Victoria,Patel,Pune,30,M,AB+,0.027,18.57891,73.90393,0803149982,williamskevin@gmail.com
D_00762,Michael,Sharma,Goa,40,F,B+,0.098,15.33145,74.06624,6882850317,kleintyler@hotmail.com
D_00763,Danielle,Naik,Pune,32,M,O+,0.052,18.51522,73.86253,0631403526,moorecarol@hotmail.com
D_00764,Elizabeth,Sharma,Bengaluru,35,M,O+,0.0,12.94354,77.6786,9434606664,simsrandall@hotmail.com
D_00765,Katie,Khan,Bengaluru,56,F,O+,0.023,13.01985,77.52656,3111271285,amanda49@yahoo.com
D_00766,Daniel,Bhagat,Pune,26,F,AB+,0.096,18.5507,73.88693,6318732807,benjaminhughes@gmail.com
D_00767,Kathryn,Sharma,Pune,40,F,O-,0.0,18.61786,73.94129,3695727908,carrollstacy@yahoo.com
D_00768,Michele,Khan,Goa,32,F,O+,0.049,15.28162,74.04975,2573066248,matthewgriffith@gmail.com
D_00769,Monica,Khan,Goa,30,F,AB+,0.055,15.22599,74.05705,3984822850,montgomerygeoffrey@yahoo.com
D_00770,Mitchell,Patel,Goa,32,F,Bombay(Oh),0.917,15.21749,74.09976,1306090691,smithmadison@yahoo.com
D_00771,Sharon,Sawant,Nagpur,34,M,O+,0.0,21.03093,78.98293,4967379457,jeffrey42@yahoo.com
D_00772,Yvette,Sharma,Nagpur,20,F,Bombay(Oh),0.921,21.14702,79.17203,5064207683,sherifisher@yahoo.com
D_00773,Steven,Sharma,Bengaluru,41,M,O+,0.095,12.95708,77.58609,7675556283,stacydaniel@hotmail.com
D_00774,Michael,Khan,Goa,37,F,O+,0.016,15.41124,74.09345,8654362718,nwilliams@yahoo.com
D_00775,Andrea,Patel,Pune,40,M,O+,0.0,18.42442,73.67141,6862703692,zandrews@gmail.com
D_00776,Edward,Rao,Pune,31,M,Bombay(Oh),0.901,18.59213,73.72292,7327599801,moramolly@yahoo.com
D_00777,Melissa,Sharma,Goa,28,M,B+,0.0,15.26267,74.11125,5323415959,keithgarcia@hotmail.com
D_00778,Ernest,Naik,Nagpur,33,M,Bombay(Oh),0.936,21.18411,79.14257,2618962887,reginadavis@gmail.com
D_00779,Derek,Parab,Goa,18,M,O+,0.119,15.21969,74.10948,7672095799,kpotts@yahoo.com
D_00780,Nicole,Rao,Goa,30,F,AB+,0.017,15.41575,74.1886,5122946213,carrie70@hotmail.com
D_00781,Patricia,Naik,Mumbai,33,M,Bombay(Oh),1.0,19.02062,72.72019,2543848075,jose65@gmail.com
D_00782,Joshua,Patel,Mumbai,31,F,Bombay(Oh),0.945,19.05901,72.99804,1580290904,sprice@hotmail.com
D_00783,Joseph,Patel,Bengaluru,34,M,AB+,0.011,12.90656,77.66046,5586652548,christopher71@hotmail.com
D_00784,Robin,Khan,Goa,18,F,AB+,0.034,15.32237,74.07898,0213125129,sharpjill@yahoo.com
D_00785,Molly,Naik,Nagpur,24,F,A+,0.042,21.22595,79.04839,2975191023,smithlatasha@gmail.com
D_00786,Jason,Sharma,Pune,25,F,O+,0.0,18.53923,73.75064,6583737927,alopez@gmail.com
D_00787,Gregory,Naik,Pune,30,F,O+,0.044,18.35435,73.84981,4289311325,carolyn84@gmail.com
D_00788,Ronald,Rao,Mumbai,28,F,O+,0.074,19.00235,72.8383,3804421017,wmiller@hotmail.com
D_00789,Sean,Fernandes,Goa,37,F,B+,0.069,15.31379,74.22826,5959194575,kathryn58@hotmail.com
D_00790,James,Fernandes,Nagpur,25,M,O+,0.035,21.27139,79.09369,0567756777,iherring@yahoo.com
D_00791,Patrick,Singh,Goa,19,M,O+,0.068,15.18822,73.99598,6506229231,josephgonzalez@yahoo.com
D_00792,Philip,Bhagat,Pune,46,F,O-,0.061,18.47941,73.78486,8433797662,jonesmarcus@yahoo.com
D_00793,Cathy,Naik,Goa,23,M,O+,0.115,15.21979,74.15762,3873670425,georgealyssa@yahoo.com
D_00794,Jenny,Fernandes,Goa,30,F,A+,0.111,15.25902,74.11643,5971075633,jbuchanan@yahoo.com
D_00795,Barbara,Singh,Goa,28,F,Bombay(Oh),0.963,15.26749,74.02928,3259399337,william16@gmail.com
D_00796,Cindy,Sharma,Pune,43,F,B+,0.0,18.62558,73.81146,8779417634,owright@gmail.com
D_00797,Mark,Rao,Nagpur,29,F,O+,0.004,21.24035,79.12667,8245759833,jessica38@hotmail.com
D_00798,Justin,Sawant,Pune,34,M,AB+,0.006,18.40825,73.96231,6044324006,seanreyes@gmail.com
D_00799,Brittney,Sawant,Bengaluru,25,F,O+,0.045,12.89416,77.56978,1474397429,williamsmark@yahoo.com
D_00800,Miguel,Sawant,Bengaluru,22,M,AB+,0.15,13.06627,77.72851,6806562590,warebrian@hotmail.com
D_00801,Jennifer,Sharma,Mumbai,26,M,A+,0.085,19.064,72.76305,1122182315,ecooper@yahoo.com
D_00802,Richard,Bhagat,Mumbai,20,F,A+,0.167,19.04976,72.94179,8662813721,newmanangela@gmail.com
D_00803,Dawn,Sawant,Goa,24,M,B+,0.1,15.18764,74.17131,7003322855,travis68@gmail.com
D_00804,Billy,Sawant,Mumbai,21,M,O+,0.108,19.03311,72.85658,3397051958,amandaherman@hotmail.com
D_00805,Cindy,Sharma,Nagpur,33,F,O+,0.06,21.17136,79.22049,8586239453,santosshannon@yahoo.com
D_00806,Carrie,Bhagat,Bengaluru,29,F,O+,0.11,12.93398,77.56027,3210613394,steven39@yahoo.com
D_00807,Jay,Rao,Mumbai,41,M,A+,0.052,19.01685,72.97305,4032537657,mcastillo@yahoo.com
D_00808,Laura,Sharma,Bengaluru,39,F,Bombay(Oh),0.858,12.95237,77.46101,1910090040,coltonrichardson@hotmail.com
D_00809,James,Bhagat,Mumbai,31,F,O+,0.117,18.9285,72.80647,5146040142,calhounjulie@hotmail.com
D_00810,Laura,Sharma,Pune,47,M,AB+,0.03,18.57627,73.83646,2011379844,simoneric@gmail.com
D_00811,Raymond,Sharma,Nagpur,28,M,AB+,0.08,21.0818,78.93556,0076762090,rharris@gmail.com
D_00812,Emily,Parab,Mumbai,39,M,Bombay(Oh),1.0,19.08877,72.92341,3700968730,stephen78@gmail.com
D_00813,Nathaniel,Patel,Goa,48,F,O+,0.0,15.25481,74.1136,8825562965,lisawalton@yahoo.com
D_00814,Emma,Fernandes,Pune,20,F,O-,0.104,18.46104,73.96003,5619425577,william29@yahoo.com
D_00815,Amber,Parab,Pune,42,F,O+,0.018,18.40718,73.87418,9236161880,scottandrea@gmail.com
D_00816,Jodi,Rao,Bengaluru,32,M,O+,0.057,12.90087,77.38753,7155868639,daniellechavez@hotmail.com
D_00817,Paula,Patel,Pune,29,M,A+,0.013,18.49269,73.72777,0817214364,andrewjohnson@gmail.com
D_00818,Jamie,Bhagat,Mumbai,33,F,B+,0.151,19.13621,72.7827,1471656094,kevinharvey@yahoo.com
D_00819,Cynthia,Khan,Nagpur,40,F,Bombay(Oh),0.938,21.19952,79.21044,7075504768,stacy70@yahoo.com
D_00820,Benjamin,Bhagat,Mumbai,26,M,Bombay(Oh),1.0,18.92716,72.94684,1748113176,tjohnson@hotmail.com
D_00821,Kimberly,Parab,Nagpur,35,F,O+,0.122,21.11784,79.02639,3961029087,khill@yahoo.com
D_00822,Laurie,Fernandes,Bengaluru,40,M,A+,0.042,13.06477,77.58762,4918727420,jrodriguez@gmail.com
D_00823,James,Sharma,Mumbai,29,M,B+,0.0,19.11901,72.91195,3062604235,hstokes@gmail.com
D_00824,Frank,Patel,Bengaluru,20,F,B+,0.056,12.99676,77.74165,9907756085,bjohnson@hotmail.com
D_00825,Jacqueline,Naik,Mumbai,43,M,O-,0.099,19.06856,72.85854,1145768321,elizabethgriffin@hotmail.com
D_00826,Nathaniel,Naik,Bengaluru,35,M,O+,0.068,13.01869,77.58789,7129618033,dsmith@hotmail.com
D_00827,Kristin,Sawant,Pune,35,M,O+,0.0,18.47174,73.88575,8498042537,gmendoza@gmail.com
D_00828,Paul,Patel,Bengaluru,46,M,Bombay(Oh),0.825,12.87959,77.62233,2282178192,mariarussell@yahoo.com
D_00829,Brad,Khan,Mumbai,37,F,B+,0.112,19.10445,72.89303,6035679327,johnboyd@yahoo.com
D_00830,Kendra,Sawant,Bengaluru,29,M,O+,0.205,13.0609,77.71524,9061812054,kevin89@yahoo.com
D_00831,Samantha,Singh,Nagpur,37,F,B+,0.0,21.16523,78.92163,8769899927,amanda91@yahoo.com
D_00832,Crystal,Khan,Goa,24,M,B-,0.157,15.28915,74.05792,4983553935,mramirez@yahoo.com
D_00833,Elizabeth,Sharma,Pune,18,M,O-,0.031,18.36236,73.91679,9243588537,hardynancy@hotmail.com
D_00834,John,Parab,Nagpur,37,M,A+,0.048,21.14342,79.04451,2753674978,kingtammy@hotmail.com
D_00835,Tonya,Parab,Pune,23,F,Bombay(Oh),0.968,18.65187,73.88555,1347789489,jarviscourtney@yahoo.com
D_00836,Caitlin,Fernandes,Mumbai,31,F,O+,0.01,19.26726,72.90787,6651221500,david16@gmail.com
D_00837,Bill,Rao,Nagpur,32,M,AB+,0.0,21.10674,79.13887,0159446333,sarah53@gmail.com
D_00838,Andrew,Fernandes,Bengaluru,43,F,B-,0.049,12.98106,77.54066,3263890219,davismegan@gmail.com
D_00839,John,Khan,Goa,53,F,O+,0.0,15.25788,74.11695,2341034699,craigmiller@hotmail.com
D_00840,Sean,Parab,Bengaluru,29,F,A+,0.039,12.87278,77.50483,6960843768,yromero@yahoo.com
D_00841,Catherine,Patel,Mumbai,40,M,O+,0.0,19.20388,72.94187,2196263355,rachel69@yahoo.com
D_00842,Susan,Naik,Goa,22,F,Bombay(Oh),0.942,15.42898,74.11495,1706955607,kimmichael@yahoo.com
D_00843,Michael,Sawant,Nagpur,34,F,O+,0.098,21.14402,79.03309,7223989830,christophermoon@gmail.com
D_00844,Christina,Fernandes,Mumbai,33,M,O+,0.147,19.01437,72.77929,4184724264,garrett13@gmail.com
D_00845,Christine,Bhagat,Pune,24,F,O+,0.089,18.51205,73.88816,4876230391,amandamaxwell@hotmail.com
D_00846,Kathleen,Fernandes,Pune,34,M,AB+,0.009,18.53033,73.91348,2823052480,dtaylor@yahoo.com
D_00847,Eric,Sawant,Mumbai,39,M,O+,0.104,19.15296,72.85874,3959473721,jonesnicholas@gmail.com
D_00848,Justin,Khan,Nagpur,39,F,O+,0.066,21.11411,79.0268,6886878599,fjackson@gmail.com
D_00849,Linda,Parab,Mumbai,18,M,O+,0.103,19.12176,72.82132,1954196664,bgonzalez@gmail.com
D_00850,Ryan,Fernandes,Bengaluru,20,M,Bombay(Oh),0.965,12.96416,77.57493,7924632037,xmarquez@gmail.com
D_00851,Steven,Singh,Bengaluru,38,F,O+,0.0,12.94053,77.57015,0321450576,michael88@yahoo.com
D_00852,Billy,Khan,Mumbai,31,F,AB+,0.015,19.0469,72.88167,1553482012,hickscrystal@yahoo.com
D_00853,Andrew,Khan,Nagpur,43,M,A-,0.0,21.21457,79.09458,5975954508,ghamilton@gmail.com
D_00854,Elizabeth,Sharma,Goa,37,M,B-,0.031,15.31266,74.15739,2657422319,bobbyturner@gmail.com
D_00855,James,Khan,Goa,37,M,O-,0.011,15.39808,74.04144,6268943012,robinsonrose@gmail.com
D_00856,Sandy,Naik,Pune,22,F,Bombay(Oh),0.916,18.50748,73.80671,1175957498,elizabethconley@hotmail.com
D_00857,Abigail,Rao,Goa,31,M,AB+,0.052,15.40739,74.1949,9330674584,laurie41@gmail.com
D_00858,Angela,Sawant,Nagpur,25,F,O-,0.025,21.23019,79.07325,3721885666,sanchezcindy@hotmail.com
D_00859,Carl,Khan,Pune,48,F,B+,0.0,18.6451,73.73426,0666267055,fkoch@yahoo.com
D_00860,Brianna,Parab,Pune,19,F,O+,0.075,18.50878,73.83106,6343925295,millerlaura@gmail.com
D_00861,Edward,Patel,Nagpur,41,M,B+,0.02,21.09719,79.07722,7120072024,williamspatricia@yahoo.com
D_00862,Craig,Rao,Mumbai,48,M,O+,0.006,19.21075,72.9577,0903267149,deckerjustin@gmail.com
D_00863,Steven,Naik,Mumbai,42,F,A+,0.154,19.05656,72.87788,2817934065,stephanie44@hotmail.com
D_00864,Janice,Fernandes,Bengaluru,32,F,Bombay(Oh),0.814,12.98392,77.59121,6345337220,hernandezwhitney@gmail.com
D_00865,Edward,Fernandes,Nagpur,35,F,O+,0.076,21.19531,79.21927,4559376618,xdouglas@gmail.com
D_00866,Peter,Khan,Bengaluru,24,M,O+,0.028,12.78301,77.5534,1004627765,wbarrett@hotmail.com
D_00867,Miranda,Naik,Pune,37,M,O+,0.036,18.59961,73.83933,0246175202,mkrueger@hotmail.com
D_00868,Henry,Rao,Pune,43,M,O+,0.005,18.37144,73.86569,0559550178,erin84@hotmail.com
D_00869,Peter,Khan,Pune,41,F,O+,0.0,18.49661,73.83699,6079848704,wellsnatalie@yahoo.com
D_00870,Robin,Rao,Bengaluru,36,M,O+,0.001,12.92381,77.55559,5937440394,billycrane@yahoo.com
D_00871,John,Fernandes,Nagpur,50,F,Bombay(Oh),0.933,21.14506,79.11276,6014886084,amandatran@gmail.com
D_00872,Melissa,Khan,Pune,31,M,O+,0.0,18.44263,73.93529,8528306153,sarahsimon@gmail.com
D_00873,Diane,Singh,Goa,35,M,O+,0.053,15.26597,74.11895,6263251448,morganfarrell@gmail.com
D_00874,Stephanie,Sharma,Mumbai,40,F,Bombay(Oh),0.917,18.93935,73.08872,4217518878,kristen51@yahoo.com
D_00875,Gregory,Patel,Nagpur,18,F,B-,0.059,21.23358,78.96295,8409112252,writter@hotmail.com
D_00876,Michael,Parab,Nagpur,25,F,Bombay(Oh),0.891,21.01405,79.13657,6618632397,dgrant@yahoo.com
D_00877,Marco,Sawant,Pune,36,M,B+,0.0,18.52924,73.80659,3007309505,michelle12@gmail.com
D_00878,Brooke,Naik,Goa,30,F,O+,0.112,15.25284,74.10335,9277885190,gcarter@gmail.com
D_00879,Sheila,Khan,Mumbai,50,F,O-,0.016,19.07964,72.92237,4624561851,sjohnson@yahoo.com
D_00880,Jack,Singh,Nagpur,20,F,Bombay(Oh),0.903,21.30487,79.27064,2899151145,brandimiller@gmail.com
D_00881,Joshua,Sharma,Bengaluru,18,F,O+,0.056,12.97116,77.68888,8984841604,joyce21@gmail.com
D_00882,Stacy,Sharma,Mumbai,44,F,B+,0.01,19.08802,73.03226,1707568142,cookjacob@hotmail.com
D_00883,Jackie,Sharma,Bengaluru,46,M,O+,0.0,12.84656,77.50024,0732283608,dkelley@yahoo.com
D_00884,Jason,Parab,Goa,42,F,B+,0.063,15.32773,74.2333,3845269694,mannjonathan@hotmail.com
D_00885,Tyler,Sawant,Bengaluru,33,M,O+,0.17,12.97362,77.47115,6934292913,juliesimon@hotmail.com
D_00886,Ralph,Singh,Nagpur,42,F,O+,0.02,21.15155,79.12592,4190310615,jenniferfloyd@yahoo.com
D_00887,Mark,Khan,Mumbai,31,M,O+,0.0,19.00912,72.99166,6847323653,samuel40@yahoo.com
D_00888,Steven,Parab,Pune,24,M,Bombay(Oh),0.908,18.48992,73.9004,0784361424,kennedykathryn@gmail.com
D_00889,Brenda,Sharma,Bengaluru,34,M,O+,0.0,12.96681,77.63408,4373476427,normandeanna@yahoo.com
D_00890,Jeffery,Rao,Pune,18,F,O+,0.0,18.59557,73.7847,1458414846,allenjustin@gmail.com
D_00891,Katherine,Rao,Bengaluru,26,M,Bombay(Oh),0.872,12.80986,77.5865,7802058695,danieltorres@yahoo.com
D_00892,John,Fernandes,Mumbai,34,F,B+,0.092,18.97033,72.70781,9369995167,brandon55@yahoo.com
D_00893,Katherine,Parab,Pune,24,F,O+,0.09,18.61315,73.93455,7368011923,vgutierrez@gmail.com
D_00894,Curtis,Parab,Mumbai,23,M,Bombay(Oh),1.0,19.08761,72.82508,2333510409,forozco@yahoo.com
D_00895,Sandra,Fernandes,Pune,44,F,O+,0.0,18.40168,73.84002,1498307482,gclay@gmail.com
D_00896,William,Rao,Goa,24,F,O+,0.026,15.26872,74.06956,9406557820,james23@hotmail.com
D_00897,Brandon,Fernandes,Nagpur,18,M,Bombay(Oh),0.89,21.06787,79.14447,3332470739,michaelsherman@yahoo.com
D_00898,Mary,Rao,Nagpur,47,F,AB+,0.012,21.05483,79.01677,2127602508,duranjason@gmail.com
D_00899,Robert,Parab,Pune,20,M,A+,0.136,18.48766,73.93717,3248889957,stephaniecoleman@hotmail.com
D_00900,Mary,Parab,Mumbai,42,F,O+,0.128,18.93831,72.80441,4549303646,hogandavid@gmail.com
D_00901,Jerry,Parab,Goa,48,M,O-,0.07,15.25166,74.19604,8769208283,allenandrea@yahoo.com
D_00902,Alicia,Sharma,Goa,36,M,B-,0.118,15.38601,74.25233,4458220673,colleenjones@hotmail.com
D_00903,Cynthia,Fernandes,Bengaluru,41,F,O+,0.07,12.80653,77.56921,5724500000,katherinemorton@hotmail.com
D_00904,Christopher,Rao,Goa,18,F,B+,0.056,15.32524,74.30626,7178509025,karen42@gmail.com
D_00905,Amy,Sawant,Goa,29,F,A-,0.026,15.1364,74.1278,9987478122,edwardstaylor@hotmail.com
D_00906,Ryan,Khan,Mumbai,38,M,AB+,0.069,19.02776,72.90313,0900436551,richardhart@gmail.com
D_00907,Robert,Rao,Bengaluru,34,F,O+,0.07,12.99619,77.52863,8355054296,nbrown@gmail.com
D_00908,Robert,Khan,Mumbai,32,M,A+,0.024,19.21347,72.67831,9509822104,mary18@hotmail.com
D_00909,Joanna,Patel,Pune,21,M,O+,0.037,18.38102,73.81302,4287738363,john12@hotmail.com
D_00910,Ricardo,Singh,Mumbai,32,M,O+,0.093,19.03597,72.91278,2894642036,tlewis@yahoo.com
D_00911,Christopher,Fernandes,Pune,33,M,O+,0.069,18.54402,73.79458,6462554026,kellychung@hotmail.com
D_00912,Andrew,Rao,Mumbai,37,F,O+,0.033,19.0435,72.82835,7646448988,john88@gmail.com
D_00913,Maria,Rao,Bengaluru,35,F,B-,0.0,13.01279,77.66019,5279050404,taraholloway@gmail.com
D_00914,Maria,Singh,Nagpur,35,F,A+,0.002,21.03403,79.18597,9516321119,stephenscatherine@gmail.com
D_00915,John,Singh,Mumbai,36,F,O+,0.094,19.1624,72.95312,3732653060,uchang@yahoo.com
D_00916,Cody,Fernandes,Nagpur,26,M,O+,0.076,21.17398,79.01846,8800230091,marywarren@gmail.com
D_00917,John,Naik,Bengaluru,25,M,O+,0.077,13.01487,77.66469,5774491609,dennis01@yahoo.com
D_00918,Cassandra,Sawant,Pune,18,M,O+,0.132,18.58253,73.85221,8941843368,katherinerussell@gmail.com
D_00919,Lisa,Patel,Pune,45,M,O+,0.0,18.49233,73.67923,3998213745,scottbenjamin@hotmail.com
D_00920,Meredith,Sawant,Pune,24,M,O+,0.061,18.4411,73.93035,2886050537,stonecody@hotmail.com
D_00921,David,Sharma,Nagpur,18,F,A+,0.0,21.154,79.04957,0308356691,vjones@gmail.com
D_00922,Cory,Singh,Goa,27,F,AB+,0.0,15.37896,74.16634,3455068826,jcoleman@hotmail.com
D_00923,Rachel,Khan,Goa,18,F,A+,0.071,15.27205,74.16401,8440134808,john88@gmail.com
D_00924,Rick,Sharma,Goa,37,M,A+,0.0,15.2823,74.21832,3591015709,prattjustin@gmail.com
D_00925,Savannah,Rao,Pune,27,M,B+,0.005,18.55886,73.97644,4926999699,hdavis@yahoo.com
D_00926,Dustin,Sawant,Pune,32,F,AB+,0.03,18.53032,73.80663,9693259140,stephaniezamora@gmail.com
D_00927,Jackson,Singh,Mumbai,18,F,A+,0.093,18.98343,72.77105,4266980690,dbowman@yahoo.com
D_00928,Teresa,Bhagat,Nagpur,47,M,O+,0.086,21.20557,79.20009,7234838935,dianehoffman@gmail.com
D_00929,Mary,Patel,Nagpur,40,F,Bombay(Oh),0.921,21.0994,78.99569,0561299650,amy26@hotmail.com
D_00930,Joseph,Khan,Nagpur,50,F,AB+,0.072,21.05409,79.12546,9656130876,ashley14@gmail.com
D_00931,Kimberly,Rao,Nagpur,27,M,O+,0.068,21.21346,79.12933,8239484002,contreraswillie@hotmail.com
D_00932,Peter,Parab,Bengaluru,32,M,B+,0.037,12.98756,77.58812,1016831139,brooksbrian@hotmail.com
D_00933,Joshua,Patel,Pune,31,M,Bombay(Oh),0.82,18.45279,73.90097,9150762839,blairjeffrey@yahoo.com
D_00934,Joseph,Naik,Goa,32,F,Bombay(Oh),1.0,15.26243,74.09413,7794620726,melvinpeters@gmail.com
D_00935,Julie,Sawant,Nagpur,26,F,O+,0.057,21.17743,79.01159,7602991406,wallerjames@yahoo.com
D_00936,Jesse,Sharma,Bengaluru,26,M,O+,0.0,13.08895,77.63774,5523561781,erikamiller@gmail.com
D_00937,Aaron,Singh,Mumbai,18,F,Bombay(Oh),0.971,18.9993,72.7695,3638527789,jefferyjones@hotmail.com
D_00938,Amy,Sharma,Pune,34,M,Bombay(Oh),0.863,18.56017,73.83316,4902950264,dhill@gmail.com
D_00939,Shannon,Rao,Bengaluru,20,M,B+,0.083,13.02422,77.58904,1678127782,daniellehumphrey@hotmail.com
D_00940,Amanda,Khan,Mumbai,45,M,B+,0.022,19.03013,72.85558,1348629857,odelacruz@hotmail.com
D_00941,John,Naik,Mumbai,27,F,O+,0.164,19.10387,72.80587,8285605397,hpowell@yahoo.com
D_00942,Timothy,Naik,Pune,42,M,B-,0.133,18.67822,73.88991,6736820506,henrysoto@yahoo.com
D_00943,Emily,Rao,Mumbai,33,M,AB+,0.087,19.07175,72.83362,6505871469,charlesduncan@yahoo.com
D_00944,Ashley,Patel,Bengaluru,21,F,AB+,0.07,13.05884,77.69059,9089843699,bentondavid@gmail.com
D_00945,Melissa,Singh,Nagpur,29,M,O+,0.068,21.16313,79.06393,9386948424,hollandjustin@yahoo.com
D_00946,Connie,Singh,Goa,42,M,Bombay(Oh),0.891,15.16151,73.96934,0715238676,anthonygilbert@yahoo.com
D_00947,Omar,Patel,Mumbai,30,F,B-,0.037,19.10562,72.92445,9177987682,jhiggins@gmail.com
D_00948,Luke,Sharma,Pune,22,M,O+,0.074,18.53903,73.91436,7085806235,karla66@hotmail.com
D_00949,Christine,Fernandes,Pune,21,F,AB+,0.098,18.51405,73.83266,9001248255,zmurray@gmail.com
D_00950,Donald,Singh,Pune,48,M,A+,0.0,18.57634,73.75937,2328946338,fmartin@hotmail.com
D_00951,Erin,Sawant,Nagpur,40,M,Bombay(Oh),0.889,21.20915,79.04255,2857256292,matthewfranklin@hotmail.com
D_00952,Mitchell,Naik,Goa,28,M,Bombay(Oh),1.0,15.29978,74.1927,8186550784,bishopkatelyn@hotmail.com
D_00953,Justin,Patel,Goa,40,F,O+,0.011,15.25159,74.10007,3034918911,brandonboyd@hotmail.com
D_00954,Matthew,Patel,Nagpur,32,F,O+,0.015,21.12547,79.03517,4015364154,james32@yahoo.com
D_00955,Christine,Sawant,Bengaluru,34,F,Bombay(Oh),0.901,12.92629,77.66113,6781367500,campbellkayla@gmail.com
D_00956,Austin,Khan,Nagpur,49,F,O-,0.0,21.24403,79.08727,2769819878,xsmith@gmail.com
D_00957,Jimmy,Parab,Mumbai,25,F,O+,0.12,19.03923,72.79131,6225866059,kramirez@gmail.com
D_00958,Trevor,Sharma,Pune,45,F,O+,0.005,18.53183,73.8575,8548596559,kevinmendez@gmail.com
D_00959,Tammy,Rao,Nagpur,29,F,O+,0.077,21.17954,79.19302,5020002453,davidwiley@gmail.com
D_00960,Lauren,Singh,Mumbai,24,M,O-,0.027,18.98289,73.02423,1305570836,kevin88@hotmail.com
D_00961,Patrick,Rao,Pune,46,M,B+,0.0,18.52583,73.69511,2736774620,samantharoberts@gmail.com
D_00962,Alicia,Sharma,Nagpur,29,M,O+,0.03,21.0521,79.27012,8123123920,bennettalan@gmail.com
D_00963,April,Khan,Goa,23,F,AB+,0.099,15.26301,74.2621,4723875082,ortegagregory@gmail.com
D_00964,Rachel,Naik,Pune,38,F,AB+,0.0,18.41192,73.88987,7545847262,christinedixon@hotmail.com
D_00965,Judy,Fernandes,Bengaluru,35,M,O+,0.102,12.84801,77.55146,8316082717,jamescobb@hotmail.com
D_00966,Jeff,Singh,Nagpur,18,F,Bombay(Oh),0.986,21.03005,79.08346,0522299936,diane91@hotmail.com
D_00967,Kevin,Bhagat,Mumbai,40,M,AB+,0.096,18.91461,72.65111,3255398358,burnsdeanna@hotmail.com
D_00968,Julia,Rao,Mumbai,29,M,B+,0.192,19.21589,72.84644,3264309544,whitesean@hotmail.com
D_00969,Scott,Sawant,Nagpur,29,F,Bombay(Oh),1.0,21.01646,79.06985,9271205397,tracywoodard@yahoo.com
D_00970,Devon,Bhagat,Nagpur,21,M,O+,0.086,21.32304,79.13274,2201256083,kathleen79@hotmail.com
D_00971,Nicole,Sawant,Pune,46,M,B+,0.046,18.54009,73.79252,5358523860,tiffany36@hotmail.com
D_00972,Christopher,Naik,Mumbai,33,F,O+,0.11,19.05012,72.78503,1715239102,elizabeth14@gmail.com
D_00973,Timothy,Naik,Mumbai,38,F,A+,0.008,19.00751,72.88055,0930967139,thomasbrandon@gmail.com
D_00974,Jessica,Sawant,Mumbai,41,F,O-,0.127,18.97536,72.93623,3217672019,ipowell@gmail.com
D_00975,Bobby,Naik,Goa,29,F,B+,0.081,15.36821,74.14411,7258733930,njames@hotmail.com
D_00976,Alexander,Parab,Mumbai,25,M,O+,0.073,19.1478,72.96812,7481242114,sandraheath@hotmail.com
D_00977,Elizabeth,Patel,Nagpur,31,M,O+,0.022,21.03031,79.04957,2946209355,jennifercarroll@yahoo.com
D_00978,David,Sawant,Bengaluru,36,M,O+,0.035,12.94807,77.61627,0137124365,paul23@gmail.com
D_00979,Jordan,Sharma,Nagpur,22,M,AB+,0.0,21.15591,79.05067,2027061592,kramirez@hotmail.com
D_00980,Christine,Bhagat,Pune,30,M,AB+,0.089,18.48853,73.95616,1669063224,jose20@gmail.com
D_00981,Jacqueline,Khan,Goa,25,F,AB+,0.09,15.37572,74.1209,0301095679,cindy57@hotmail.com
D_00982,Erica,Parab,Goa,33,F,O+,0.031,15.26224,74.18554,5462347124,williamsbrian@gmail.com
D_00983,Laura,Parab,Mumbai,42,M,A+,0.116,19.13383,72.88664,0306831764,iblack@gmail.com
D_00984,Zachary,Fernandes,Pune,24,F,O+,0.08,18.35776,74.02569,7129015071,pchavez@gmail.com
D_00985,Steven,Sawant,Nagpur,20,M,O+,0.078,21.27321,79.08975,5104584743,angelcunningham@gmail.com
D_00986,Michael,Sawant,Mumbai,21,M,Bombay(Oh),1.0,19.08678,72.86822,7669470318,catherinemoore@yahoo.com
D_00987,Sandra,Singh,Goa,18,F,AB+,0.095,15.23603,74.12672,6621591832,whitneyrichard@yahoo.com
D_00988,Craig,Fernandes,Goa,26,M,O+,0.129,15.05133,74.13429,9011079771,brenda88@gmail.com
D_00989,Lori,Khan,Bengaluru,43,F,AB+,0.0,12.90214,77.60243,9053152049,deborah97@yahoo.com
D_00990,Krista,Patel,Mumbai,35,M,A+,0.007,19.12277,72.84808,3137971669,godonnell@gmail.com
D_00991,Javier,Sawant,Mumbai,25,F,O+,0.146,18.95622,72.98018,0779433256,brandi19@yahoo.com
D_00992,Lindsay,Fernandes,Nagpur,34,F,A-,0.111,21.20829,79.01089,4262037087,jenkinsmary@hotmail.com
D_00993,Elizabeth,Sawant,Goa,42,F,A+,0.13,15.20466,74.10378,4181359989,phyllismiller@yahoo.com
D_00994,Sydney,Parab,Goa,32,F,Bombay(Oh),1.0,15.40815,74.12612,8018644822,ashleyalexander@hotmail.com
D_00995,Nathaniel,Bhagat,Pune,31,M,O+,0.12,18.33477,73.91931,8200480675,omarmiller@hotmail.com
D_00996,Richard,Sharma,Bengaluru,28,M,O+,0.088,13.06829,77.5919,2879429688,dbeck@yahoo.com
D_00997,Bradley,Khan,Pune,39,M,O+,0.0,18.74082,73.83225,3141961560,tonycraig@hotmail.com
D_00998,Angela,Patel,Nagpur,23,F,O+,0.004,21.08714,79.06344,5651796240,preyes@hotmail.com
D_00999,Joseph,Parab,Goa,18,F,O+,0.147,15.33819,73.96805,0478421702,wthomas@hotmail.com
D_01000,Kathleen,Singh,Mumbai,23,M,O+,0.019,19.06806,72.90782,4882089348,christinabeard@gmail.com
D_01001,Traci,Fernandes,Pune,46,M,O+,0.039,18.46128,73.90889,7287991609,lewismaria@hotmail.com
D_01002,Paula,Khan,Bengaluru,28,F,AB+,0.051,12.86049,77.6186,5923613376,bradleyscott@hotmail.com
D_01003,William,Fernandes,Bengaluru,38,M,A-,0.046,13.07723,77.52465,5025447241,debra34@yahoo.com
D_01004,Anthony,Rao,Mumbai,38,M,O+,0.03,19.0737,72.77142,6177182498,clinesteven@hotmail.com
D_01005,Dustin,Singh,Mumbai,40,M,A+,0.0,19.14988,72.79365,1746813592,ijensen@hotmail.com
D_01006,Linda,Naik,Goa,23,M,O+,0.087,15.30334,74.24318,9698748694,tiffany01@gmail.com
D_01007,Christina,Bhagat,Nagpur,23,F,A+,0.084,21.25387,79.03591,0753605117,marissamedina@hotmail.com
D_01008,Lindsey,Sharma,Nagpur,33,F,AB+,0.039,21.12992,79.01765,6536218945,dwashington@gmail.com
D_01009,Brooke,Khan,Mumbai,26,M,O+,0.084,18.90174,72.83534,2489420466,areynolds@gmail.com
D_01010,Mark,Naik,Mumbai,33,F,O+,0.121,19.26304,72.85882,4204565775,tpatton@yahoo.com
D_01011,Tami,Parab,Bengaluru,33,M,B+,0.053,13.04126,77.67051,8906235466,jackie01@yahoo.com
D_01012,Cynthia,Sawant,Bengaluru,18,F,O+,0.044,12.88788,77.52829,3006221224,ebenson@yahoo.com
D_01013,Richard,Khan,Bengaluru,33,M,A+,0.0,12.98687,77.59169,9160112411,aholder@hotmail.com
D_01014,Alexis,Naik,Nagpur,57,M,B+,0.117,21.14937,79.18877,9867782312,agalvan@yahoo.com
D_01015,Sean,Bhagat,Goa,18,M,A+,0.132,15.25066,74.04284,4261212038,jeremy59@hotmail.com
D_01016,Paul,Khan,Mumbai,24,F,B+,0.039,19.12273,72.92681,7852548242,natalie54@gmail.com
D_01017,Anthony,Singh,Bengaluru,23,M,B+,0.054,13.0511,77.70451,4454752311,imitchell@hotmail.com
D_01018,Kathy,Naik,Goa,34,M,O+,0.069,15.26532,74.164,9177633427,ecohen@yahoo.com
D_01019,Michael,Bhagat,Goa,23,M,O+,0.049,15.3175,74.17488,8019630453,markgardner@gmail.com
D_01020,Joseph,Sawant,Nagpur,29,F,O+,0.032,21.14539,79.03561,5340018167,kirbymichael@gmail.com
D_01021,Joshua,Sharma,Bengaluru,28,F,O+,0.0,13.02527,77.6429,5446083851,shannonmueller@gmail.com
D_01022,Alexis,Sawant,Pune,22,M,O+,0.11,18.55088,73.8211,3912878848,hmcneil@hotmail.com
D_01023,Kimberly,Naik,Mumbai,26,M,O+,0.176,19.09743,72.81182,4579271472,patrickmichelle@hotmail.com
D_01024,Amber,Fernandes,Nagpur,27,F,AB+,0.023,21.15481,79.15673,4242383972,hernandezdaniel@hotmail.com
D_01025,Donna,Sharma,Mumbai,48,F,O-,0.055,19.18409,72.98112,0629328809,davidvelasquez@gmail.com
D_01026,Jacob,Singh,Mumbai,38,F,A+,0.084,18.98496,72.90686,0018676610,hespinoza@gmail.com
D_01027,Amy,Rao,Bengaluru,42,F,O+,0.0,12.86836,77.58314,3561403845,hartmanjoshua@hotmail.com
D_01028,Darlene,Bhagat,Nagpur,28,M,AB+,0.066,21.22336,79.12591,5469510030,woodlisa@yahoo.com
D_01029,Stephanie,Fernandes,Goa,41,F,O+,0.02,15.29955,74.2224,7150066664,thendricks@gmail.com
D_01030,Jenna,Parab,Bengaluru,19,M,O+,0.119,13.14804,77.69055,4078516994,richardsonanna@gmail.com
D_01031,Russell,Patel,Bengaluru,34,M,AB+,0.073,12.94075,77.62936,4826899962,riceamber@hotmail.com
D_01032,Angela,Bhagat,Mumbai,42,M,O+,0.1,19.00263,72.93128,7879150596,hudsonpenny@gmail.com
D_01033,Heather,Bhagat,Nagpur,28,F,Bombay(Oh),0.919,21.14168,79.12845,2012657898,tiffany80@hotmail.com
D_01034,Miguel,Khan,Goa,28,M,A+,0.102,15.36336,74.09263,1755851777,mphillips@gmail.com
D_01035,Kristen,Bhagat,Bengaluru,29,F,O+,0.153,12.89644,77.68414,8824199626,carriewoods@hotmail.com
D_01036,Briana,Patel,Pune,18,M,O+,0.0,18.47608,73.9614,0454218545,ichan@gmail.com
D_01037,Megan,Khan,Pune,35,F,O+,0.0,18.63068,73.86597,2570900163,stevensjason@gmail.com
D_01038,Joshua,Parab,Bengaluru,33,F,O+,0.074,12.89748,77.51779,2828954001,eugenegreen@yahoo.com
D_01039,John,Parab,Bengaluru,33,M,O+,0.18,12.95392,77.60015,6168507105,andrewstheresa@hotmail.com
D_01040,Gregory,Sawant,Goa,23,M,A+,0.0,15.2458,74.10603,1152610537,bradleyford@yahoo.com
D_01041,Brittney,Khan,Mumbai,40,F,B+,0.0,19.13291,73.12673,0741894854,jgutierrez@hotmail.com
D_01042,Jason,Naik,Pune,22,F,O+,0.038,18.50661,73.7479,5294471619,lindashepherd@gmail.com
D_01043,Jason,Parab,Bengaluru,24,F,B-,0.073,13.05548,77.63362,0450258963,jason57@yahoo.com
D_01044,Alexandria,Bhagat,Pune,26,M,O+,0.081,18.52497,73.87949,5268064860,veronicadavies@yahoo.com
D_01045,Sarah,Naik,Bengaluru,33,F,A+,0.08,12.80322,77.75797,8425364628,griffinsean@yahoo.com
D_01046,Janet,Singh,Goa,18,F,O+,0.0,15.17178,74.10717,5795515623,fernandezmathew@yahoo.com
D_01047,Daniel,Fernandes,Bengaluru,44,F,O+,0.061,12.88904,77.55938,4091311178,thomaslinda@hotmail.com
D_01048,Sherri,Patel,Bengaluru,34,M,O+,0.055,13.01228,77.5795,0220695354,estradaian@yahoo.com
D_01049,Kristen,Sawant,Mumbai,48,F,B-,0.109,19.25081,72.82276,0026015153,scott95@gmail.com
D_01050,Samuel,Bhagat,Goa,47,F,O-,0.064,15.23194,74.13462,7173279805,elizabethcalderon@gmail.com
D_01051,Alec,Bhagat,Pune,43,M,O+,0.051,18.35444,73.85494,4934039104,rosshunter@hotmail.com
D_01052,Teresa,Khan,Pune,28,M,O+,0.067,18.50267,73.87957,1184913599,kathleen35@hotmail.com
D_01053,Ashley,Patel,Bengaluru,30,M,AB+,0.0,13.02835,77.59616,0561006799,jhahn@gmail.com
D_01054,Charles,Khan,Nagpur,18,M,Bombay(Oh),0.858,21.04417,79.05309,7740378423,bianca53@gmail.com
D_01055,Aaron,Sawant,Pune,31,M,A+,0.074,18.52291,73.98531,7625503250,iedwards@yahoo.com
D_01056,Isaiah,Bhagat,Goa,24,F,O+,0.154,15.26432,73.99394,7842902923,jonesjo@gmail.com
D_01057,Ashley,Fernandes,Nagpur,32,M,AB+,0.112,21.16187,79.09626,0530886843,cruzscott@gmail.com
D_01058,Christina,Singh,Mumbai,18,M,A+,0.071,19.21539,73.04206,4575988759,zcollins@gmail.com
D_01059,Jerry,Khan,Mumbai,31,M,A+,0.065,19.1525,73.06367,6202755821,nealdavid@yahoo.com
D_01060,Danny,Khan,Goa,38,M,B+,0.026,15.39567,74.1386,2380236219,boydrenee@hotmail.com
D_01061,Adam,Naik,Pune,30,F,B-,0.043,18.40904,73.99303,9161186385,crossnicole@hotmail.com
D_01062,Kara,Khan,Pune,40,F,A+,0.0,18.54545,73.86709,2168800537,kelleynicholas@gmail.com
D_01063,William,Rao,Pune,42,M,O+,0.035,18.45905,73.86215,2845401822,thompsonjason@yahoo.com
D_01064,Amanda,Parab,Goa,32,M,A-,0.039,15.3019,74.18845,2204144743,fisherstephanie@yahoo.com
D_01065,Barbara,Singh,Mumbai,31,M,Bombay(Oh),0.86,19.03755,73.08085,0202030423,ihoward@hotmail.com
D_01066,Nancy,Parab,Goa,39,F,O+,0.167,15.20061,73.97212,5302816506,flemingmallory@yahoo.com
D_01067,Jennifer,Rao,Pune,29,F,B+,0.027,18.40995,73.82181,7775691983,vickidavis@hotmail.com
D_01068,Nicole,Parab,Bengaluru,31,F,A+,0.019,12.91957,77.64343,7469029831,carl66@gmail.com
D_01069,Edward,Patel,Nagpur,36,F,A+,0.052,21.15777,79.09603,3167080568,cfinley@yahoo.com
D_01070,Jesus,Rao,Pune,32,M,B+,0.082,18.56204,73.89079,2198655049,alexanderryan@gmail.com
D_01071,Gail,Parab,Goa,25,F,AB+,0.077,15.33766,74.18232,3965049627,htaylor@gmail.com
D_01072,Kenneth,Singh,Mumbai,33,M,Bombay(Oh),0.99,19.04201,72.96234,4362585421,mavery@hotmail.com
D_01073,Christine,Fernandes,Goa,39,M,O+,0.106,15.28936,74.10709,2341996433,jenniferrivers@yahoo.com
D_01074,Stacey,Patel,Pune,31,F,A+,0.0,18.42263,73.89028,5058333430,melinda87@yahoo.com
D_01075,Anthony,Sharma,Mumbai,30,F,O+,0.0,19.08699,73.11115,5769475769,tammy65@hotmail.com
